[
{ "type": "Feature", "properties": { "osm_id": "60655611", "name": "長濱鄉", "type": "town", "population": 7778 }, "geometry": { "type": "Point", "coordinates": [ 121.4515154, 23.3149993 ] } },
{ "type": "Feature", "properties": { "osm_id": "60655612", "name": "褒忠鄉 (Baojhong)", "type": "town", "population": null }, "geometry": { "type": "Point", "coordinates": [ 120.310488, 23.694245 ] } },
{ "type": "Feature", "properties": { "osm_id": "60655613", "name": "田寮區", "type": "suburb", "population": null }, "geometry": { "type": "Point", "coordinates": [ 120.3594453, 22.8699651 ] } },
{ "type": "Feature", "properties": { "osm_id": "60655614", "name": "深坑區 (Shenkeng)", "type": "suburb", "population": null }, "geometry": { "type": "Point", "coordinates": [ 121.61567, 25.002329 ] } },
{ "type": "Feature", "properties": { "osm_id": "60655615", "name": "社頭鄉", "type": "town", "population": null }, "geometry": { "type": "Point", "coordinates": [ 120.5857667, 23.8969333 ] } },
{ "type": "Feature", "properties": { "osm_id": "60655616", "name": "平鎮市 (Pingzhen City)", "type": "town", "population": null }, "geometry": { "type": "Point", "coordinates": [ 121.2183594, 24.9457522 ] } },
{ "type": "Feature", "properties": { "osm_id": "60655617", "name": "大園鄉 (Dayuan)", "type": "town", "population": null }, "geometry": { "type": "Point", "coordinates": [ 121.195277, 25.063889 ] } },
{ "type": "Feature", "properties": { "osm_id": "60655618", "name": "二崙鄉 (Erlun)", "type": "town", "population": null }, "geometry": { "type": "Point", "coordinates": [ 120.415077, 23.771273 ] } },
{ "type": "Feature", "properties": { "osm_id": "60655619", "name": "路竹區", "type": "suburb", "population": null }, "geometry": { "type": "Point", "coordinates": [ 120.2618279, 22.8568505 ] } },
{ "type": "Feature", "properties": { "osm_id": "60655620", "name": "板橋區 (Banqiao)", "type": "suburb", "population": null }, "geometry": { "type": "Point", "coordinates": [ 121.4590989, 25.0096703 ] } },
{ "type": "Feature", "properties": { "osm_id": "60655621", "name": "伸港鄉", "type": "town", "population": null }, "geometry": { "type": "Point", "coordinates": [ 120.4862557, 24.1592856 ] } },
{ "type": "Feature", "properties": { "osm_id": "60655622", "name": "後壁區 (Houbi)", "type": "suburb", "population": null }, "geometry": { "type": "Point", "coordinates": [ 120.362726, 23.366721 ] } },
{ "type": "Feature", "properties": { "osm_id": "60655623", "name": "獅子鄉 (Shihzih)", "type": "town", "population": null }, "geometry": { "type": "Point", "coordinates": [ 120.704617, 22.201917 ] } },
{ "type": "Feature", "properties": { "osm_id": "60655624", "name": "頭份鎮", "type": "town", "population": null }, "geometry": { "type": "Point", "coordinates": [ 120.9126667, 24.6865333 ] } },
{ "type": "Feature", "properties": { "osm_id": "60655625", "name": "大社區", "type": "suburb", "population": null }, "geometry": { "type": "Point", "coordinates": [ 120.3466353, 22.7299662 ] } },
{ "type": "Feature", "properties": { "osm_id": "60655626", "name": "達仁鄉 (Daren)", "type": "town", "population": null }, "geometry": { "type": "Point", "coordinates": [ 120.884131, 22.294869 ] } },
{ "type": "Feature", "properties": { "osm_id": "60655628", "name": "北埔 (Beipu)", "type": "town", "population": null }, "geometry": { "type": "Point", "coordinates": [ 121.0560417, 24.6994846 ] } },
{ "type": "Feature", "properties": { "osm_id": "60655632", "name": "大甲區", "type": "suburb", "population": null }, "geometry": { "type": "Point", "coordinates": [ 120.62239, 24.34892 ] } },
{ "type": "Feature", "properties": { "osm_id": "60655636", "name": "阿里山鄉 (Alishan)", "type": "town", "population": null }, "geometry": { "type": "Point", "coordinates": [ 120.7325197, 23.4679502 ] } },
{ "type": "Feature", "properties": { "osm_id": "60655637", "name": "莒光鄉", "type": "town", "population": null }, "geometry": { "type": "Point", "coordinates": [ 119.9326833, 25.9719667 ] } },
{ "type": "Feature", "properties": { "osm_id": "60655638", "name": "東山區 (Dongshan)", "type": "suburb", "population": null }, "geometry": { "type": "Point", "coordinates": [ 120.403984, 23.326092 ] } },
{ "type": "Feature", "properties": { "osm_id": "60655639", "name": "花蓮市 (Hualien City)", "type": "town", "population": null }, "geometry": { "type": "Point", "coordinates": [ 121.60681, 23.982074 ] } },
{ "type": "Feature", "properties": { "osm_id": "60655640", "name": "虎尾鎮 (Huwei)", "type": "town", "population": null }, "geometry": { "type": "Point", "coordinates": [ 120.445339, 23.708182 ] } },
{ "type": "Feature", "properties": { "osm_id": "60655641", "name": "東區", "type": "suburb", "population": null }, "geometry": { "type": "Point", "coordinates": [ 120.224198, 22.980072 ] } },
{ "type": "Feature", "properties": { "osm_id": "60655642", "name": "大溪鎮 (Dasi)", "type": "town", "population": null }, "geometry": { "type": "Point", "coordinates": [ 121.286962, 24.880584 ] } },
{ "type": "Feature", "properties": { "osm_id": "60655643", "name": "金山區 (Jinshan)", "type": "suburb", "population": null }, "geometry": { "type": "Point", "coordinates": [ 121.636427, 25.221883 ] } },
{ "type": "Feature", "properties": { "osm_id": "60655644", "name": "鹽水區 (Yanshuei)", "type": "suburb", "population": null }, "geometry": { "type": "Point", "coordinates": [ 120.266398, 23.319828 ] } },
{ "type": "Feature", "properties": { "osm_id": "60655645", "name": "馬公市", "type": "town", "population": null }, "geometry": { "type": "Point", "coordinates": [ 119.5785833, 23.5662167 ] } },
{ "type": "Feature", "properties": { "osm_id": "60655646", "name": "雙溪區 (Shuangxi)", "type": "suburb", "population": null }, "geometry": { "type": "Point", "coordinates": [ 121.865676, 25.033409 ] } },
{ "type": "Feature", "properties": { "osm_id": "60655647", "name": "枋山鄉 (Fangshan)", "type": "town", "population": null }, "geometry": { "type": "Point", "coordinates": [ 120.652396, 22.263856 ] } },
{ "type": "Feature", "properties": { "osm_id": "60655648", "name": "彰化市", "type": "town", "population": null }, "geometry": { "type": "Point", "coordinates": [ 120.5423, 24.0807667 ] } },
{ "type": "Feature", "properties": { "osm_id": "60655649", "name": "金峰鄉", "type": "town", "population": null }, "geometry": { "type": "Point", "coordinates": [ 120.971292, 22.595511 ] } },
{ "type": "Feature", "properties": { "osm_id": "60655650", "name": "屏東市 (Pingdong City)", "type": "town", "population": null }, "geometry": { "type": "Point", "coordinates": [ 120.4884652, 22.6697227 ] } },
{ "type": "Feature", "properties": { "osm_id": "60655651", "name": "瑞芳區", "type": "town", "population": 41400 }, "geometry": { "type": "Point", "coordinates": [ 121.8097683, 25.1089107 ] } },
{ "type": "Feature", "properties": { "osm_id": "60655652", "name": "溪口鄉 (Sikou)", "type": "town", "population": null }, "geometry": { "type": "Point", "coordinates": [ 120.393822, 23.602223 ] } },
{ "type": "Feature", "properties": { "osm_id": "60655653", "name": "大埔鄉 (Dapu)", "type": "town", "population": null }, "geometry": { "type": "Point", "coordinates": [ 120.593795, 23.296715 ] } },
{ "type": "Feature", "properties": { "osm_id": "60655654", "name": "楊梅市(Yangmei City)", "type": "town", "population": null }, "geometry": { "type": "Point", "coordinates": [ 121.1458735, 24.9075751 ] } },
{ "type": "Feature", "properties": { "osm_id": "60655655", "name": "關山鎮 (Guanshan)", "type": "town", "population": null }, "geometry": { "type": "Point", "coordinates": [ 121.163134, 23.04745 ] } },
{ "type": "Feature", "properties": { "osm_id": "60655656", "name": "田尾鄉", "type": "town", "population": null }, "geometry": { "type": "Point", "coordinates": [ 120.5260879, 23.8922203 ] } },
{ "type": "Feature", "properties": { "osm_id": "60655657", "name": "造橋鄉", "type": "town", "population": null }, "geometry": { "type": "Point", "coordinates": [ 120.8648, 24.6384333 ] } },
{ "type": "Feature", "properties": { "osm_id": "60655658", "name": "高樹鄉 (Gaoshu)", "type": "town", "population": null }, "geometry": { "type": "Point", "coordinates": [ 120.600214, 22.826789 ] } },
{ "type": "Feature", "properties": { "osm_id": "60655659", "name": "民雄鄉 (Minsyong)", "type": "town", "population": null }, "geometry": { "type": "Point", "coordinates": [ 120.428577, 23.551456 ] } },
{ "type": "Feature", "properties": { "osm_id": "60655661", "name": "新埔", "type": "town", "population": null }, "geometry": { "type": "Point", "coordinates": [ 121.07119, 24.82797 ] } },
{ "type": "Feature", "properties": { "osm_id": "60655662", "name": "望安鄉", "type": "town", "population": null }, "geometry": { "type": "Point", "coordinates": [ 119.5009622, 23.3571771 ] } },
{ "type": "Feature", "properties": { "osm_id": "60655663", "name": "下營區(Siaying)", "type": "suburb", "population": null }, "geometry": { "type": "Point", "coordinates": [ 120.264484, 23.235413 ] } },
{ "type": "Feature", "properties": { "osm_id": "60655664", "name": "南竿鄉", "type": "town", "population": null }, "geometry": { "type": "Point", "coordinates": [ 119.9386167, 26.1530833 ] } },
{ "type": "Feature", "properties": { "osm_id": "60655665", "name": "鹿港鎮", "type": "town", "population": null }, "geometry": { "type": "Point", "coordinates": [ 120.43515, 24.0567333 ] } },
{ "type": "Feature", "properties": { "osm_id": "60655666", "name": "六腳鄉 (Lioujiao)", "type": "town", "population": null }, "geometry": { "type": "Point", "coordinates": [ 120.291083, 23.493942 ] } },
{ "type": "Feature", "properties": { "osm_id": "60655667", "name": "成功鎮", "type": "town", "population": null }, "geometry": { "type": "Point", "coordinates": [ 121.3804397, 23.1053075 ] } },
{ "type": "Feature", "properties": { "osm_id": "60655668", "name": "梧棲區", "type": "suburb", "population": null }, "geometry": { "type": "Point", "coordinates": [ 120.53152, 24.25496 ] } },
{ "type": "Feature", "properties": { "osm_id": "60655669", "name": "三峽區 (Sanxia)", "type": "suburb", "population": null }, "geometry": { "type": "Point", "coordinates": [ 121.368905, 24.9343387 ] } },
{ "type": "Feature", "properties": { "osm_id": "60655670", "name": "九讚頭", "type": "village", "population": null }, "geometry": { "type": "Point", "coordinates": [ 121.1423229, 24.7165469 ] } },
{ "type": "Feature", "properties": { "osm_id": "60655671", "name": "左鎮區 (Zuojhen)", "type": "suburb", "population": null }, "geometry": { "type": "Point", "coordinates": [ 120.407309, 23.057955 ] } },
{ "type": "Feature", "properties": { "osm_id": "60655672", "name": "鹿草鄉 (Lucao)", "type": "town", "population": null }, "geometry": { "type": "Point", "coordinates": [ 120.30837, 23.410784 ] } },
{ "type": "Feature", "properties": { "osm_id": "60655673", "name": "Budai (布袋鎮)", "type": "town", "population": null }, "geometry": { "type": "Point", "coordinates": [ 120.166936, 23.377979 ] } },
{ "type": "Feature", "properties": { "osm_id": "60655675", "name": "前金區 (Cianjin)", "type": "suburb", "population": null }, "geometry": { "type": "Point", "coordinates": [ 120.2941644, 22.6275512 ] } },
{ "type": "Feature", "properties": { "osm_id": "60655676", "name": "中和區", "type": "suburb", "population": null }, "geometry": { "type": "Point", "coordinates": [ 121.49898, 24.999397 ] } },
{ "type": "Feature", "properties": { "osm_id": "60655677", "name": "車城鄉 (Checheng)", "type": "village", "population": null }, "geometry": { "type": "Point", "coordinates": [ 120.7132224, 22.0748135 ] } },
{ "type": "Feature", "properties": { "osm_id": "60655678", "name": "鹽埕區 (Yancheng)", "type": "suburb", "population": null }, "geometry": { "type": "Point", "coordinates": [ 120.286795, 22.624666 ] } },
{ "type": "Feature", "properties": { "osm_id": "60655679", "name": "綠島鄉", "type": "town", "population": null }, "geometry": { "type": "Point", "coordinates": [ 121.492596, 22.6616764 ] } },
{ "type": "Feature", "properties": { "osm_id": "60655680", "name": "線西鄉", "type": "town", "population": null }, "geometry": { "type": "Point", "coordinates": [ 120.4708667, 24.1308333 ] } },
{ "type": "Feature", "properties": { "osm_id": "60655681", "name": "苗栗縣", "type": "county", "population": null }, "geometry": { "type": "Point", "coordinates": [ 120.8205167, 24.5647667 ] } },
{ "type": "Feature", "properties": { "osm_id": "60655682", "name": "杉林區", "type": "suburb", "population": null }, "geometry": { "type": "Point", "coordinates": [ 120.53898, 22.970712 ] } },
{ "type": "Feature", "properties": { "osm_id": "60655683", "name": "中山區 (Jhongshan)", "type": "suburb", "population": null }, "geometry": { "type": "Point", "coordinates": [ 121.739132, 25.133991 ] } },
{ "type": "Feature", "properties": { "osm_id": "60655684", "name": "沙鹿區", "type": "suburb", "population": null }, "geometry": { "type": "Point", "coordinates": [ 120.5657, 24.23348 ] } },
{ "type": "Feature", "properties": { "osm_id": "60655685", "name": "田中鎮", "type": "town", "population": null }, "geometry": { "type": "Point", "coordinates": [ 120.5809667, 23.8612667 ] } },
{ "type": "Feature", "properties": { "osm_id": "60655686", "name": "南庄鄉", "type": "town", "population": null }, "geometry": { "type": "Point", "coordinates": [ 120.9991049, 24.6021967 ] } },
{ "type": "Feature", "properties": { "osm_id": "60655687", "name": "桃園縣", "type": "county", "population": null }, "geometry": { "type": "Point", "coordinates": [ 121.083, 25.0 ] } },
{ "type": "Feature", "properties": { "osm_id": "60655688", "name": "臺東縣", "type": "county", "population": null }, "geometry": { "type": "Point", "coordinates": [ 121.1506, 22.7553667 ] } },
{ "type": "Feature", "properties": { "osm_id": "60655689", "name": "新店區 (Xindian)", "type": "suburb", "population": null }, "geometry": { "type": "Point", "coordinates": [ 121.5415838, 24.9673093 ] } },
{ "type": "Feature", "properties": { "osm_id": "60655690", "name": "萬巒鄉 (Wanluan)", "type": "town", "population": null }, "geometry": { "type": "Point", "coordinates": [ 120.56812, 22.572919 ] } },
{ "type": "Feature", "properties": { "osm_id": "60655691", "name": "高雄市", "type": "city", "population": null }, "geometry": { "type": "Point", "coordinates": [ 120.3120375, 22.6203348 ] } },
{ "type": "Feature", "properties": { "osm_id": "60655692", "name": "莿桐鄉 (Cihtong)", "type": "town", "population": null }, "geometry": { "type": "Point", "coordinates": [ 120.502374, 23.760784 ] } },
{ "type": "Feature", "properties": { "osm_id": "60655693", "name": "三民區", "type": "suburb", "population": null }, "geometry": { "type": "Point", "coordinates": [ 120.2996219, 22.6476949 ] } },
{ "type": "Feature", "properties": { "osm_id": "60655694", "name": "後龍鎮", "type": "town", "population": null }, "geometry": { "type": "Point", "coordinates": [ 120.7919167, 24.6135667 ] } },
{ "type": "Feature", "properties": { "osm_id": "60655695", "name": "恆春鎮 (Hengchun)", "type": "town", "population": null }, "geometry": { "type": "Point", "coordinates": [ 120.7446924, 22.0026559 ] } },
{ "type": "Feature", "properties": { "osm_id": "60655696", "name": "埔里鎮", "type": "town", "population": 83436 }, "geometry": { "type": "Point", "coordinates": [ 120.9691, 23.9666667 ] } },
{ "type": "Feature", "properties": { "osm_id": "60655697", "name": "林園區", "type": "suburb", "population": null }, "geometry": { "type": "Point", "coordinates": [ 120.395977, 22.50149 ] } },
{ "type": "Feature", "properties": { "osm_id": "60655698", "name": "潭子區", "type": "suburb", "population": null }, "geometry": { "type": "Point", "coordinates": [ 120.70516, 24.20953 ] } },
{ "type": "Feature", "properties": { "osm_id": "60655699", "name": "新北市", "type": "city", "population": null }, "geometry": { "type": "Point", "coordinates": [ 121.4657168, 25.0120265 ] } },
{ "type": "Feature", "properties": { "osm_id": "60655700", "name": "旗津區", "type": "suburb", "population": null }, "geometry": { "type": "Point", "coordinates": [ 120.2844287, 22.5905652 ] } },
{ "type": "Feature", "properties": { "osm_id": "60655701", "name": "大內區 (Danei)", "type": "suburb", "population": null }, "geometry": { "type": "Point", "coordinates": [ 120.348853, 23.11946 ] } },
{ "type": "Feature", "properties": { "osm_id": "60655702", "name": "竹東 (Zhudong)", "type": "town", "population": null }, "geometry": { "type": "Point", "coordinates": [ 121.091723, 24.736578 ] } },
{ "type": "Feature", "properties": { "osm_id": "60655703", "name": "草屯鎮", "type": "town", "population": null }, "geometry": { "type": "Point", "coordinates": [ 120.6803432, 23.9739474 ] } },
{ "type": "Feature", "properties": { "osm_id": "60655704", "name": "集集鎮", "type": "town", "population": null }, "geometry": { "type": "Point", "coordinates": [ 120.7864167, 23.8286333 ] } },
{ "type": "Feature", "properties": { "osm_id": "60655705", "name": "暖暖區 (Nuannuan Dist.)", "type": "suburb", "population": null }, "geometry": { "type": "Point", "coordinates": [ 121.736102, 25.099777 ] } },
{ "type": "Feature", "properties": { "osm_id": "60655706", "name": "琉球鄉 (Liouciou)", "type": "town", "population": null }, "geometry": { "type": "Point", "coordinates": [ 120.3690199, 22.342366 ] } },
{ "type": "Feature", "properties": { "osm_id": "60655707", "name": "神岡區", "type": "suburb", "population": null }, "geometry": { "type": "Point", "coordinates": [ 120.66155, 24.25777 ] } },
{ "type": "Feature", "properties": { "osm_id": "60655708", "name": "麥寮鄉", "type": "town", "population": null }, "geometry": { "type": "Point", "coordinates": [ 120.252043, 23.753841 ] } },
{ "type": "Feature", "properties": { "osm_id": "60655709", "name": "新市區 (Sinshih)", "type": "town", "population": null }, "geometry": { "type": "Point", "coordinates": [ 120.295138, 23.07897 ] } },
{ "type": "Feature", "properties": { "osm_id": "60655710", "name": "烏來區 (Wulai Dist.)", "type": "suburb", "population": null }, "geometry": { "type": "Point", "coordinates": [ 121.550531, 24.865296 ] } },
{ "type": "Feature", "properties": { "osm_id": "60655711", "name": "林內鄉 (Linnei)", "type": "town", "population": null }, "geometry": { "type": "Point", "coordinates": [ 120.613041, 23.75591 ] } },
{ "type": "Feature", "properties": { "osm_id": "60655712", "name": "池上鄉", "type": "town", "population": null }, "geometry": { "type": "Point", "coordinates": [ 121.215139, 23.122393 ] } },
{ "type": "Feature", "properties": { "osm_id": "60655713", "name": "新園鄉 (Sinyuan)", "type": "town", "population": null }, "geometry": { "type": "Point", "coordinates": [ 120.461739, 22.543952 ] } },
{ "type": "Feature", "properties": { "osm_id": "60655715", "name": "羅東鎮 (Luodong Township)", "type": "town", "population": null }, "geometry": { "type": "Point", "coordinates": [ 121.766919, 24.6770334 ] } },
{ "type": "Feature", "properties": { "osm_id": "60655716", "name": "嘉義縣", "type": "county", "population": null }, "geometry": { "type": "Point", "coordinates": [ 120.2930167, 23.4592167 ] } },
{ "type": "Feature", "properties": { "osm_id": "60655717", "name": "二林鎮", "type": "town", "population": null }, "geometry": { "type": "Point", "coordinates": [ 120.3744, 23.8996333 ] } },
{ "type": "Feature", "properties": { "osm_id": "60655718", "name": "北屯區", "type": "suburb", "population": null }, "geometry": { "type": "Point", "coordinates": [ 120.6862883, 24.1822644 ] } },
{ "type": "Feature", "properties": { "osm_id": "60655719", "name": "新埤鄉 (Sinpi)", "type": "town", "population": null }, "geometry": { "type": "Point", "coordinates": [ 120.549546, 22.469976 ] } },
{ "type": "Feature", "properties": { "osm_id": "60655720", "name": "金湖鎮", "type": "town", "population": null }, "geometry": { "type": "Point", "coordinates": [ 118.4170667, 24.4413 ] } },
{ "type": "Feature", "properties": { "osm_id": "60655721", "name": "中區", "type": "suburb", "population": null }, "geometry": { "type": "Point", "coordinates": [ 120.67951, 24.14383 ] } },
{ "type": "Feature", "properties": { "osm_id": "60655722", "name": "礁溪(Jiaosi)", "type": "town", "population": null }, "geometry": { "type": "Point", "coordinates": [ 121.771268, 24.823653 ] } },
{ "type": "Feature", "properties": { "osm_id": "60655723", "name": "溪州鄉", "type": "town", "population": null }, "geometry": { "type": "Point", "coordinates": [ 120.4986667, 23.8511 ] } },
{ "type": "Feature", "properties": { "osm_id": "60655724", "name": "中正區", "type": "suburb", "population": 163623 }, "geometry": { "type": "Point", "coordinates": [ 121.518267, 25.0323611 ] } },
{ "type": "Feature", "properties": { "osm_id": "60655726", "name": "壽豐鄉 (Shoufong)", "type": "town", "population": null }, "geometry": { "type": "Point", "coordinates": [ 121.5089552, 23.8706805 ] } },
{ "type": "Feature", "properties": { "osm_id": "60655727", "name": "北區", "type": "suburb", "population": null }, "geometry": { "type": "Point", "coordinates": [ 120.202975, 22.999492 ] } },
{ "type": "Feature", "properties": { "osm_id": "60655728", "name": "南澳鄉 (Nan-ao)", "type": "town", "population": null }, "geometry": { "type": "Point", "coordinates": [ 121.805197, 24.46674 ] } },
{ "type": "Feature", "properties": { "osm_id": "60655730", "name": "泰武鄉 (Taiwu)", "type": "town", "population": null }, "geometry": { "type": "Point", "coordinates": [ 120.632856, 22.591819 ] } },
{ "type": "Feature", "properties": { "osm_id": "60655731", "name": "中山區", "type": "suburb", "population": null }, "geometry": { "type": "Point", "coordinates": [ 121.533468, 25.0643611 ] } },
{ "type": "Feature", "properties": { "osm_id": "60655732", "name": "水林鄉 (Shueilin)", "type": "town", "population": null }, "geometry": { "type": "Point", "coordinates": [ 120.245948, 23.572634 ] } },
{ "type": "Feature", "properties": { "osm_id": "60655733", "name": "仁德區 (Rende)", "type": "suburb", "population": null }, "geometry": { "type": "Point", "coordinates": [ 120.25152, 22.972212 ] } },
{ "type": "Feature", "properties": { "osm_id": "60655734", "name": "仁愛鄉", "type": "town", "population": null }, "geometry": { "type": "Point", "coordinates": [ 121.133543, 24.024429 ] } },
{ "type": "Feature", "properties": { "osm_id": "60655735", "name": "大同鄉 (Datong Town)", "type": "town", "population": null }, "geometry": { "type": "Point", "coordinates": [ 121.6091667, 24.6775 ] } },
{ "type": "Feature", "properties": { "osm_id": "60655736", "name": "小港區 (Siaogang)", "type": "suburb", "population": null }, "geometry": { "type": "Point", "coordinates": [ 120.3379701, 22.5653543 ] } },
{ "type": "Feature", "properties": { "osm_id": "60655737", "name": "滿州鄉 (Manjhou)", "type": "town", "population": null }, "geometry": { "type": "Point", "coordinates": [ 120.838843, 22.020853 ] } },
{ "type": "Feature", "properties": { "osm_id": "60655738", "name": "梅山鄉 (Meishan)", "type": "town", "population": null }, "geometry": { "type": "Point", "coordinates": [ 120.557192, 23.584915 ] } },
{ "type": "Feature", "properties": { "osm_id": "60655739", "name": "西區", "type": "suburb", "population": null }, "geometry": { "type": "Point", "coordinates": [ 120.67104, 24.14138 ] } },
{ "type": "Feature", "properties": { "osm_id": "60655740", "name": "宜蘭市 (Yilan City)", "type": "town", "population": null }, "geometry": { "type": "Point", "coordinates": [ 121.753476, 24.751682 ] } },
{ "type": "Feature", "properties": { "osm_id": "60655741", "name": "金城鎮", "type": "town", "population": null }, "geometry": { "type": "Point", "coordinates": [ 118.3205667, 24.4328 ] } },
{ "type": "Feature", "properties": { "osm_id": "60655742", "name": "南區", "type": "suburb", "population": null }, "geometry": { "type": "Point", "coordinates": [ 120.66357, 24.11692 ] } },
{ "type": "Feature", "properties": { "osm_id": "60655743", "name": "龍崎區", "type": "town", "population": null }, "geometry": { "type": "Point", "coordinates": [ 120.360824, 22.9656811 ] } },
{ "type": "Feature", "properties": { "osm_id": "60655744", "name": "大村鄉", "type": "town", "population": null }, "geometry": { "type": "Point", "coordinates": [ 120.54725, 23.9932833 ] } },
{ "type": "Feature", "properties": { "osm_id": "60655745", "name": "朴子市 (Puzi City)", "type": "town", "population": null }, "geometry": { "type": "Point", "coordinates": [ 120.247014, 23.464961 ] } },
{ "type": "Feature", "properties": { "osm_id": "60655747", "name": "彌陀區", "type": "suburb", "population": null }, "geometry": { "type": "Point", "coordinates": [ 120.2473437, 22.7828793 ] } },
{ "type": "Feature", "properties": { "osm_id": "60655748", "name": "埔心鄉", "type": "town", "population": null }, "geometry": { "type": "Point", "coordinates": [ 120.5437333, 23.95285 ] } },
{ "type": "Feature", "properties": { "osm_id": "60655749", "name": "淡水區", "type": "suburb", "population": null }, "geometry": { "type": "Point", "coordinates": [ 121.4409149, 25.1694521 ] } },
{ "type": "Feature", "properties": { "osm_id": "60655750", "name": "光復鄉 (Guangfu)", "type": "town", "population": null }, "geometry": { "type": "Point", "coordinates": [ 121.423496, 23.669084 ] } },
{ "type": "Feature", "properties": { "osm_id": "60655751", "name": "卓蘭鎮", "type": "town", "population": null }, "geometry": { "type": "Point", "coordinates": [ 120.82455, 24.3131333 ] } },
{ "type": "Feature", "properties": { "osm_id": "60655752", "name": "楠西區 (Nansi)", "type": "town", "population": null }, "geometry": { "type": "Point", "coordinates": [ 120.4856051, 23.178224 ] } },
{ "type": "Feature", "properties": { "osm_id": "60655753", "name": "橋頭區", "type": "suburb", "population": null }, "geometry": { "type": "Point", "coordinates": [ 120.305741, 22.757501 ] } },
{ "type": "Feature", "properties": { "osm_id": "60655754", "name": "南屯區", "type": "suburb", "population": null }, "geometry": { "type": "Point", "coordinates": [ 120.64308, 24.13827 ] } },
{ "type": "Feature", "properties": { "osm_id": "60655755", "name": "林邊鄉 (Linbian)", "type": "town", "population": null }, "geometry": { "type": "Point", "coordinates": [ 120.515091, 22.434015 ] } },
{ "type": "Feature", "properties": { "osm_id": "60655756", "name": "瑞穗鄉 (Ruisui)", "type": "town", "population": null }, "geometry": { "type": "Point", "coordinates": [ 121.375992, 23.496817 ] } },
{ "type": "Feature", "properties": { "osm_id": "60655757", "name": "三義鄉", "type": "town", "population": null }, "geometry": { "type": "Point", "coordinates": [ 120.7704023, 24.4130625 ] } },
{ "type": "Feature", "properties": { "osm_id": "60655758", "name": "石門區 (Shimen  Dist.)", "type": "suburb", "population": null }, "geometry": { "type": "Point", "coordinates": [ 121.568491, 25.290412 ] } },
{ "type": "Feature", "properties": { "osm_id": "60655759", "name": "太平區", "type": "suburb", "population": null }, "geometry": { "type": "Point", "coordinates": [ 120.7185227, 24.1264719 ] } },
{ "type": "Feature", "properties": { "osm_id": "60655760", "name": "芎林 (Qionglin)", "type": "town", "population": null }, "geometry": { "type": "Point", "coordinates": [ 121.07914, 24.774856 ] } },
{ "type": "Feature", "properties": { "osm_id": "60655761", "name": "卑南鄉 (Beinan)", "type": "town", "population": null }, "geometry": { "type": "Point", "coordinates": [ 121.0778382, 22.7937274 ] } },
{ "type": "Feature", "properties": { "osm_id": "60655762", "name": "安南區", "type": "suburb", "population": null }, "geometry": { "type": "Point", "coordinates": [ 120.1846813, 23.0473013 ] } },
{ "type": "Feature", "properties": { "osm_id": "60655763", "name": "鶯歌區 (Yingge  Dist.)", "type": "suburb", "population": null }, "geometry": { "type": "Point", "coordinates": [ 121.3548809, 24.955707 ] } },
{ "type": "Feature", "properties": { "osm_id": "60655764", "name": "永康區 (Yongkang)", "type": "town", "population": null }, "geometry": { "type": "Point", "coordinates": [ 120.257069, 23.026061 ] } },
{ "type": "Feature", "properties": { "osm_id": "60655765", "name": "六龜區", "type": "suburb", "population": null }, "geometry": { "type": "Point", "coordinates": [ 120.633418, 22.997914 ] } },
{ "type": "Feature", "properties": { "osm_id": "60655766", "name": "大安區 (Da-an Dist.)", "type": "suburb", "population": null }, "geometry": { "type": "Point", "coordinates": [ 121.534648, 25.026406 ] } },
{ "type": "Feature", "properties": { "osm_id": "60655767", "name": "信義區", "type": "suburb", "population": null }, "geometry": { "type": "Point", "coordinates": [ 121.751381, 25.129407 ] } },
{ "type": "Feature", "properties": { "osm_id": "60655768", "name": "苓雅區", "type": "suburb", "population": null }, "geometry": { "type": "Point", "coordinates": [ 120.312347, 22.62177 ] } },
{ "type": "Feature", "properties": { "osm_id": "60655769", "name": "泰安鄉", "type": "town", "population": null }, "geometry": { "type": "Point", "coordinates": [ 120.9077, 24.4474833 ] } },
{ "type": "Feature", "properties": { "osm_id": "60655770", "name": "旗山區", "type": "suburb", "population": null }, "geometry": { "type": "Point", "coordinates": [ 120.48355, 22.888491 ] } },
{ "type": "Feature", "properties": { "osm_id": "60655771", "name": "新化區 (Sinhua)", "type": "town", "population": null }, "geometry": { "type": "Point", "coordinates": [ 120.3108066, 23.0385326 ] } },
{ "type": "Feature", "properties": { "osm_id": "60655772", "name": "西港區 (Sigang)", "type": "town", "population": null }, "geometry": { "type": "Point", "coordinates": [ 120.2036181, 23.123057 ] } },
{ "type": "Feature", "properties": { "osm_id": "60655774", "name": "內埔鄉 (Neipu)", "type": "town", "population": null }, "geometry": { "type": "Point", "coordinates": [ 120.566865, 22.611967 ] } },
{ "type": "Feature", "properties": { "osm_id": "60655775", "name": "霧峰區", "type": "suburb", "population": null }, "geometry": { "type": "Point", "coordinates": [ 120.7002, 24.06152 ] } },
{ "type": "Feature", "properties": { "osm_id": "60655777", "name": "新竹縣", "type": "county", "population": null }, "geometry": { "type": "Point", "coordinates": [ 121.0128333, 24.8267 ] } },
{ "type": "Feature", "properties": { "osm_id": "60655778", "name": "鳥松區 (Niaosong)", "type": "suburb", "population": null }, "geometry": { "type": "Point", "coordinates": [ 120.3643371, 22.6599708 ] } },
{ "type": "Feature", "properties": { "osm_id": "60655779", "name": "苑裡鎮", "type": "town", "population": null }, "geometry": { "type": "Point", "coordinates": [ 120.6535333, 24.4396667 ] } },
{ "type": "Feature", "properties": { "osm_id": "60655780", "name": "豐原區", "type": "suburb", "population": null }, "geometry": { "type": "Point", "coordinates": [ 120.71846, 24.24219 ] } },
{ "type": "Feature", "properties": { "osm_id": "60655781", "name": "新莊區", "type": "suburb", "population": null }, "geometry": { "type": "Point", "coordinates": [ 121.4504128, 25.0359472 ] } },
{ "type": "Feature", "properties": { "osm_id": "60655782", "name": "信義鄉", "type": "town", "population": null }, "geometry": { "type": "Point", "coordinates": [ 120.85425, 23.6968 ] } },
{ "type": "Feature", "properties": { "osm_id": "60655783", "name": "卓溪鄉 (Zhuoxi)", "type": "town", "population": null }, "geometry": { "type": "Point", "coordinates": [ 121.303422, 23.346369 ] } },
{ "type": "Feature", "properties": { "osm_id": "60655784", "name": "南投縣", "type": "county", "population": null }, "geometry": { "type": "Point", "coordinates": [ 120.6909167, 23.90235 ] } },
{ "type": "Feature", "properties": { "osm_id": "60655785", "name": "雲林縣", "type": "county", "population": null }, "geometry": { "type": "Point", "coordinates": [ 120.5245511, 23.6990775 ] } },
{ "type": "Feature", "properties": { "osm_id": "60655786", "name": "冬山鄉 (Dongshan)", "type": "town", "population": null }, "geometry": { "type": "Point", "coordinates": [ 121.79228, 24.634514 ] } },
{ "type": "Feature", "properties": { "osm_id": "60655787", "name": "善化區 (Shanhua)", "type": "town", "population": null }, "geometry": { "type": "Point", "coordinates": [ 120.296895, 23.132261 ] } },
{ "type": "Feature", "properties": { "osm_id": "60655789", "name": "四湖鄉", "type": "town", "population": null }, "geometry": { "type": "Point", "coordinates": [ 120.225741, 23.63774 ] } },
{ "type": "Feature", "properties": { "osm_id": "60655790", "name": "麻豆區 (Madou)", "type": "town", "population": null }, "geometry": { "type": "Point", "coordinates": [ 120.2482061, 23.1817242 ] } },
{ "type": "Feature", "properties": { "osm_id": "60655791", "name": "麟洛鄉 (Linluo)", "type": "town", "population": null }, "geometry": { "type": "Point", "coordinates": [ 120.527283, 22.650604 ] } },
{ "type": "Feature", "properties": { "osm_id": "60655792", "name": "東勢鄉", "type": "town", "population": null }, "geometry": { "type": "Point", "coordinates": [ 120.252672, 23.674679 ] } },
{ "type": "Feature", "properties": { "osm_id": "60655793", "name": "五股區 (Wugu  Dist.)", "type": "suburb", "population": null }, "geometry": { "type": "Point", "coordinates": [ 121.438156, 25.082743 ] } },
{ "type": "Feature", "properties": { "osm_id": "60655794", "name": "湖口 (Hukou)", "type": "town", "population": null }, "geometry": { "type": "Point", "coordinates": [ 121.046839, 24.900599 ] } },
{ "type": "Feature", "properties": { "osm_id": "60655795", "name": "瑪家鄉 (Majia)", "type": "town", "population": null }, "geometry": { "type": "Point", "coordinates": [ 120.6480657, 22.7093319 ] } },
{ "type": "Feature", "properties": { "osm_id": "60655796", "name": "和平區", "type": "suburb", "population": null }, "geometry": { "type": "Point", "coordinates": [ 120.88349, 24.17477 ] } },
{ "type": "Feature", "properties": { "osm_id": "60655797", "name": "秀林鄉 (Sioulin)", "type": "town", "population": null }, "geometry": { "type": "Point", "coordinates": [ 121.6249667, 24.1188167 ] } },
{ "type": "Feature", "properties": { "osm_id": "60655798", "name": "林口區 (Linkou)", "type": "suburb", "population": null }, "geometry": { "type": "Point", "coordinates": [ 121.3916021, 25.0775308 ] } },
{ "type": "Feature", "properties": { "osm_id": "60655799", "name": "北投區 (Beitou)", "type": "suburb", "population": null }, "geometry": { "type": "Point", "coordinates": [ 121.501379, 25.132419 ] } },
{ "type": "Feature", "properties": { "osm_id": "60655800", "name": "大埤鄉 (Dapi)", "type": "town", "population": null }, "geometry": { "type": "Point", "coordinates": [ 120.430516, 23.645908 ] } },
{ "type": "Feature", "properties": { "osm_id": "60655801", "name": "將軍區 (Jiangjyun)", "type": "town", "population": null }, "geometry": { "type": "Point", "coordinates": [ 120.1568708, 23.1995428 ] } },
{ "type": "Feature", "properties": { "osm_id": "60655802", "name": "秀水鄉", "type": "town", "population": null }, "geometry": { "type": "Point", "coordinates": [ 120.503, 24.0352333 ] } },
{ "type": "Feature", "properties": { "osm_id": "60655803", "name": "茄萣區", "type": "town", "population": null }, "geometry": { "type": "Point", "coordinates": [ 120.1824547, 22.9064777 ] } },
{ "type": "Feature", "properties": { "osm_id": "60655805", "name": "北門區 (Beimen)", "type": "town", "population": null }, "geometry": { "type": "Point", "coordinates": [ 120.125821, 23.267148 ] } },
{ "type": "Feature", "properties": { "osm_id": "60655806", "name": "那瑪夏區", "type": "suburb", "population": null }, "geometry": { "type": "Point", "coordinates": [ 120.692799, 23.216964 ] } },
{ "type": "Feature", "properties": { "osm_id": "60655807", "name": "桃園市 (Taoyuan City)", "type": "town", "population": null }, "geometry": { "type": "Point", "coordinates": [ 121.3013371, 24.993777 ] } },
{ "type": "Feature", "properties": { "osm_id": "60655808", "name": "彰化縣", "type": "county", "population": null }, "geometry": { "type": "Point", "coordinates": [ 120.5444667, 24.0755667 ] } },
{ "type": "Feature", "properties": { "osm_id": "60655809", "name": "芳苑鄉", "type": "town", "population": null }, "geometry": { "type": "Point", "coordinates": [ 120.3203167, 23.9240167 ] } },
{ "type": "Feature", "properties": { "osm_id": "60655810", "name": "石岡區", "type": "suburb", "population": null }, "geometry": { "type": "Point", "coordinates": [ 120.78041, 24.27498 ] } },
{ "type": "Feature", "properties": { "osm_id": "60655811", "name": "新屋鄉(Xinwu)", "type": "town", "population": null }, "geometry": { "type": "Point", "coordinates": [ 121.105801, 24.972203 ] } },
{ "type": "Feature", "properties": { "osm_id": "60655812", "name": "三地門鄉 (Sandimen)", "type": "town", "population": null }, "geometry": { "type": "Point", "coordinates": [ 120.654221, 22.7165024 ] } },
{ "type": "Feature", "properties": { "osm_id": "60655813", "name": "公館鄉", "type": "town", "population": null }, "geometry": { "type": "Point", "coordinates": [ 120.8282833, 24.5061167 ] } },
{ "type": "Feature", "properties": { "osm_id": "60655815", "name": "員林鎮", "type": "town", "population": null }, "geometry": { "type": "Point", "coordinates": [ 120.5743667, 23.9588667 ] } },
{ "type": "Feature", "properties": { "osm_id": "60655816", "name": "春日鄉 (Chunrih)", "type": "town", "population": null }, "geometry": { "type": "Point", "coordinates": [ 120.628793, 22.370672 ] } },
{ "type": "Feature", "properties": { "osm_id": "60655817", "name": "復興鄉 (Fusing)", "type": "town", "population": null }, "geometry": { "type": "Point", "coordinates": [ 121.351898, 24.8153769 ] } },
{ "type": "Feature", "properties": { "osm_id": "60655818", "name": "花蓮縣政府", "type": "county", "population": null }, "geometry": { "type": "Point", "coordinates": [ 121.6197276, 23.9913421 ] } },
{ "type": "Feature", "properties": { "osm_id": "60655819", "name": "西螺鎮 (Siluo)", "type": "town", "population": null }, "geometry": { "type": "Point", "coordinates": [ 120.4660104, 23.7979844 ] } },
{ "type": "Feature", "properties": { "osm_id": "60655820", "name": "土庫鎮 (Tuku)", "type": "town", "population": null }, "geometry": { "type": "Point", "coordinates": [ 120.392572, 23.677822 ] } },
{ "type": "Feature", "properties": { "osm_id": "60655821", "name": "阿蓮區", "type": "suburb", "population": null }, "geometry": { "type": "Point", "coordinates": [ 120.327036, 22.883703 ] } },
{ "type": "Feature", "properties": { "osm_id": "60655822", "name": "平溪區 (Pingxi)", "type": "suburb", "population": null }, "geometry": { "type": "Point", "coordinates": [ 121.739144, 25.025797 ] } },
{ "type": "Feature", "properties": { "osm_id": "60655823", "name": "石碇區 (Shiding)", "type": "suburb", "population": null }, "geometry": { "type": "Point", "coordinates": [ 121.6585671, 24.9916787 ] } },
{ "type": "Feature", "properties": { "osm_id": "60655824", "name": "永靖鄉", "type": "town", "population": null }, "geometry": { "type": "Point", "coordinates": [ 120.5479333, 23.9245167 ] } },
{ "type": "Feature", "properties": { "osm_id": "60655826", "name": "東石鄉", "type": "town", "population": null }, "geometry": { "type": "Point", "coordinates": [ 120.1537333, 23.4584667 ] } },
{ "type": "Feature", "properties": { "osm_id": "60655827", "name": "燕巢區 (Yanchao)", "type": "suburb", "population": null }, "geometry": { "type": "Point", "coordinates": [ 120.3619561, 22.7933704 ] } },
{ "type": "Feature", "properties": { "osm_id": "60655828", "name": "佳冬鄉 (Jiadong)", "type": "town", "population": null }, "geometry": { "type": "Point", "coordinates": [ 120.551544, 22.417653 ] } },
{ "type": "Feature", "properties": { "osm_id": "60655829", "name": "澎湖縣", "type": "county", "population": null }, "geometry": { "type": "Point", "coordinates": [ 119.5664167, 23.5697333 ] } },
{ "type": "Feature", "properties": { "osm_id": "60655830", "name": "外埔區", "type": "suburb", "population": null }, "geometry": { "type": "Point", "coordinates": [ 120.65437, 24.33201 ] } },
{ "type": "Feature", "properties": { "osm_id": "60655832", "name": "新港鄉 (Singang)", "type": "town", "population": null }, "geometry": { "type": "Point", "coordinates": [ 120.347647, 23.551806 ] } },
{ "type": "Feature", "properties": { "osm_id": "60655833", "name": "大肚區", "type": "suburb", "population": null }, "geometry": { "type": "Point", "coordinates": [ 120.54096, 24.15366 ] } },
{ "type": "Feature", "properties": { "osm_id": "60655834", "name": "尖石 (Jianshi)", "type": "town", "population": null }, "geometry": { "type": "Point", "coordinates": [ 121.2012592, 24.7050028 ] } },
{ "type": "Feature", "properties": { "osm_id": "60655835", "name": "北斗鎮", "type": "town", "population": null }, "geometry": { "type": "Point", "coordinates": [ 120.5217833, 23.8713 ] } },
{ "type": "Feature", "properties": { "osm_id": "60655836", "name": "坪林區 (Pinglin)", "type": "suburb", "population": null }, "geometry": { "type": "Point", "coordinates": [ 121.711185, 24.937388 ] } },
{ "type": "Feature", "properties": { "osm_id": "60655838", "name": "新城鄉 (Sincheng)", "type": "town", "population": null }, "geometry": { "type": "Point", "coordinates": [ 121.604246, 24.039092 ] } },
{ "type": "Feature", "properties": { "osm_id": "60655839", "name": "岡山區", "type": "suburb", "population": null }, "geometry": { "type": "Point", "coordinates": [ 120.2958197, 22.7967625 ] } },
{ "type": "Feature", "properties": { "osm_id": "60655841", "name": "柳營區 (Liouying)", "type": "suburb", "population": null }, "geometry": { "type": "Point", "coordinates": [ 120.311286, 23.278133 ] } },
{ "type": "Feature", "properties": { "osm_id": "60655842", "name": "龍潭鄉 (Longtan)", "type": "town", "population": null }, "geometry": { "type": "Point", "coordinates": [ 121.216392, 24.863851 ] } },
{ "type": "Feature", "properties": { "osm_id": "60655843", "name": "芬園鄉", "type": "town", "population": null }, "geometry": { "type": "Point", "coordinates": [ 120.629, 24.0135833 ] } },
{ "type": "Feature", "properties": { "osm_id": "60655844", "name": "竹崎鄉 (Jhuci)", "type": "town", "population": null }, "geometry": { "type": "Point", "coordinates": [ 120.551466, 23.523184 ] } },
{ "type": "Feature", "properties": { "osm_id": "60655845", "name": "六甲區 (Lioujia)", "type": "town", "population": null }, "geometry": { "type": "Point", "coordinates": [ 120.3475998, 23.2319311 ] } },
{ "type": "Feature", "properties": { "osm_id": "60655846", "name": "枋寮鄉 (Fangliao)", "type": "town", "population": null }, "geometry": { "type": "Point", "coordinates": [ 120.5934384, 22.3655598 ] } },
{ "type": "Feature", "properties": { "osm_id": "60655847", "name": "后里區", "type": "suburb", "population": null }, "geometry": { "type": "Point", "coordinates": [ 120.71071, 24.30491 ] } },
{ "type": "Feature", "properties": { "osm_id": "60655848", "name": "烈嶼鄉", "type": "town", "population": null }, "geometry": { "type": "Point", "coordinates": [ 118.2441837, 24.4346723 ] } },
{ "type": "Feature", "properties": { "osm_id": "60655849", "name": "八德市 (Bade)", "type": "town", "population": null }, "geometry": { "type": "Point", "coordinates": [ 121.2846555, 24.9286511 ] } },
{ "type": "Feature", "properties": { "osm_id": "60655850", "name": "大武鄉 (Dawu)", "type": "town", "population": null }, "geometry": { "type": "Point", "coordinates": [ 120.889938, 22.339919 ] } },
{ "type": "Feature", "properties": { "osm_id": "60655851", "name": "連江縣", "type": "county", "population": null }, "geometry": { "type": "Point", "coordinates": [ 119.9518667, 26.1579333 ] } },
{ "type": "Feature", "properties": { "osm_id": "60655852", "name": "中埔鄉 (Jhongpu)", "type": "town", "population": null }, "geometry": { "type": "Point", "coordinates": [ 120.5225414, 23.4249745 ] } },
{ "type": "Feature", "properties": { "osm_id": "60655853", "name": "貢寮區", "type": "suburb", "population": null }, "geometry": { "type": "Point", "coordinates": [ 121.9100822, 25.0220426 ] } },
{ "type": "Feature", "properties": { "osm_id": "60655854", "name": "北竿鄉", "type": "town", "population": null }, "geometry": { "type": "Point", "coordinates": [ 119.9973333, 26.22505 ] } },
{ "type": "Feature", "properties": { "osm_id": "60655855", "name": "福興鄉", "type": "town", "population": null }, "geometry": { "type": "Point", "coordinates": [ 120.4438667, 24.0480667 ] } },
{ "type": "Feature", "properties": { "osm_id": "60655856", "name": "太麻里鄉 (Taimali)", "type": "town", "population": null }, "geometry": { "type": "Point", "coordinates": [ 121.0073943, 22.6153828 ] } },
{ "type": "Feature", "properties": { "osm_id": "60655859", "name": "西嶼鄉", "type": "town", "population": null }, "geometry": { "type": "Point", "coordinates": [ 119.5069833, 23.6008167 ] } },
{ "type": "Feature", "properties": { "osm_id": "60655861", "name": "三重區 (Sanchong)", "type": "suburb", "population": null }, "geometry": { "type": "Point", "coordinates": [ 121.488102, 25.061486 ] } },
{ "type": "Feature", "properties": { "osm_id": "60655862", "name": "五峰 (Wufeng)", "type": "town", "population": null }, "geometry": { "type": "Point", "coordinates": [ 121.119308, 24.632985 ] } },
{ "type": "Feature", "properties": { "osm_id": "60655863", "name": "臺東市", "type": "town", "population": null }, "geometry": { "type": "Point", "coordinates": [ 121.1456538, 22.7560447 ] } },
{ "type": "Feature", "properties": { "osm_id": "60655864", "name": "義竹鄉 (Yijhu)", "type": "town", "population": null }, "geometry": { "type": "Point", "coordinates": [ 120.243423, 23.336277 ] } },
{ "type": "Feature", "properties": { "osm_id": "60655865", "name": "甲仙區", "type": "suburb", "population": null }, "geometry": { "type": "Point", "coordinates": [ 120.5911851, 23.0846879 ] } },
{ "type": "Feature", "properties": { "osm_id": "60655866", "name": "鹿野鄉 (Luye)", "type": "town", "population": null }, "geometry": { "type": "Point", "coordinates": [ 121.135982, 22.913951 ] } },
{ "type": "Feature", "properties": { "osm_id": "60655867", "name": "中正區 (Jhongjheng)", "type": "suburb", "population": null }, "geometry": { "type": "Point", "coordinates": [ 121.767995, 25.151721 ] } },
{ "type": "Feature", "properties": { "osm_id": "60655868", "name": "清水區", "type": "suburb", "population": null }, "geometry": { "type": "Point", "coordinates": [ 120.55978, 24.26865 ] } },
{ "type": "Feature", "properties": { "osm_id": "60655869", "name": "蘆竹市", "type": "town", "population": null }, "geometry": { "type": "Point", "coordinates": [ 121.293975, 25.046735 ] } },
{ "type": "Feature", "properties": { "osm_id": "60655870", "name": "里港鄉 (Ligang)", "type": "town", "population": null }, "geometry": { "type": "Point", "coordinates": [ 120.49449, 22.77922 ] } },
{ "type": "Feature", "properties": { "osm_id": "60655871", "name": "新興區", "type": "suburb", "population": null }, "geometry": { "type": "Point", "coordinates": [ 120.3100224, 22.6310699 ] } },
{ "type": "Feature", "properties": { "osm_id": "60655872", "name": "龍井區", "type": "suburb", "population": null }, "geometry": { "type": "Point", "coordinates": [ 120.54594, 24.19271 ] } },
{ "type": "Feature", "properties": { "osm_id": "60655873", "name": "峨眉鄉", "type": "town", "population": null }, "geometry": { "type": "Point", "coordinates": [ 121.0196215, 24.6887001 ] } },
{ "type": "Feature", "properties": { "osm_id": "60655874", "name": "牡丹鄉 (Mudan)", "type": "town", "population": null }, "geometry": { "type": "Point", "coordinates": [ 120.7709175, 22.1255127 ] } },
{ "type": "Feature", "properties": { "osm_id": "60655876", "name": "鹽埔鄉 (Yanpu)", "type": "town", "population": null }, "geometry": { "type": "Point", "coordinates": [ 120.572849, 22.754783 ] } },
{ "type": "Feature", "properties": { "osm_id": "60655877", "name": "安樂區 (Anle)", "type": "suburb", "population": null }, "geometry": { "type": "Point", "coordinates": [ 121.723203, 25.12091 ] } },
{ "type": "Feature", "properties": { "osm_id": "60655878", "name": "溪湖鎮", "type": "town", "population": null }, "geometry": { "type": "Point", "coordinates": [ 120.4832732, 23.9664261 ] } },
{ "type": "Feature", "properties": { "osm_id": "60655879", "name": "獅潭鄉", "type": "town", "population": null }, "geometry": { "type": "Point", "coordinates": [ 120.9205, 24.5397833 ] } },
{ "type": "Feature", "properties": { "osm_id": "60655880", "name": "鼓山區", "type": "suburb", "population": null }, "geometry": { "type": "Point", "coordinates": [ 120.281154, 22.636797 ] } },
{ "type": "Feature", "properties": { "osm_id": "60655881", "name": "樹林區 (Shulin)", "type": "suburb", "population": null }, "geometry": { "type": "Point", "coordinates": [ 121.4205326, 24.9907063 ] } },
{ "type": "Feature", "properties": { "osm_id": "60655882", "name": "大林鎮 (Dalin)", "type": "town", "population": null }, "geometry": { "type": "Point", "coordinates": [ 120.471336, 23.603815 ] } },
{ "type": "Feature", "properties": { "osm_id": "60655883", "name": "寶山鄉", "type": "town", "population": null }, "geometry": { "type": "Point", "coordinates": [ 120.99098, 24.765448 ] } },
{ "type": "Feature", "properties": { "osm_id": "60655884", "name": "和美鎮", "type": "town", "population": null }, "geometry": { "type": "Point", "coordinates": [ 120.4944667, 24.1081167 ] } },
{ "type": "Feature", "properties": { "osm_id": "60655885", "name": "湖內區", "type": "town", "population": null }, "geometry": { "type": "Point", "coordinates": [ 120.21153, 22.908188 ] } },
{ "type": "Feature", "properties": { "osm_id": "60655886", "name": "三灣鄉", "type": "town", "population": null }, "geometry": { "type": "Point", "coordinates": [ 120.95645, 24.6530667 ] } },
{ "type": "Feature", "properties": { "osm_id": "60655888", "name": "竹南鎮", "type": "town", "population": null }, "geometry": { "type": "Point", "coordinates": [ 120.8734, 24.6836333 ] } },
{ "type": "Feature", "properties": { "osm_id": "60655889", "name": "名間鄉", "type": "town", "population": null }, "geometry": { "type": "Point", "coordinates": [ 120.702797, 23.838427 ] } },
{ "type": "Feature", "properties": { "osm_id": "60655890", "name": "中寮鄉", "type": "town", "population": null }, "geometry": { "type": "Point", "coordinates": [ 120.766654, 23.878935 ] } },
{ "type": "Feature", "properties": { "osm_id": "60655892", "name": "萬里區 (Wanli)", "type": "suburb", "population": null }, "geometry": { "type": "Point", "coordinates": [ 121.688687, 25.181234 ] } },
{ "type": "Feature", "properties": { "osm_id": "60655893", "name": "蘭嶼鄉", "type": "island", "population": null }, "geometry": { "type": "Point", "coordinates": [ 121.5324732, 22.0567358 ] } },
{ "type": "Feature", "properties": { "osm_id": "60655894", "name": "來義鄉 (Laiyi)", "type": "town", "population": null }, "geometry": { "type": "Point", "coordinates": [ 120.6336012, 22.5258665 ] } },
{ "type": "Feature", "properties": { "osm_id": "60655895", "name": "古坑鄉", "type": "town", "population": null }, "geometry": { "type": "Point", "coordinates": [ 120.562043, 23.642568 ] } },
{ "type": "Feature", "properties": { "osm_id": "60655896", "name": "國姓鄉", "type": "town", "population": null }, "geometry": { "type": "Point", "coordinates": [ 120.858541, 24.042298 ] } },
{ "type": "Feature", "properties": { "osm_id": "60655897", "name": "土城區 (Tucheng)", "type": "suburb", "population": null }, "geometry": { "type": "Point", "coordinates": [ 121.443348, 24.972201 ] } },
{ "type": "Feature", "properties": { "osm_id": "60655898", "name": "大寮區 (Daliao District)", "type": "suburb", "population": null }, "geometry": { "type": "Point", "coordinates": [ 120.395422, 22.605386 ] } },
{ "type": "Feature", "properties": { "osm_id": "60655899", "name": "東港鎮 (Donggang)", "type": "town", "population": null }, "geometry": { "type": "Point", "coordinates": [ 120.454489, 22.466626 ] } },
{ "type": "Feature", "properties": { "osm_id": "60655900", "name": "東河鄉 (Donghe)", "type": "town", "population": null }, "geometry": { "type": "Point", "coordinates": [ 121.304415, 22.970203 ] } },
{ "type": "Feature", "properties": { "osm_id": "60655901", "name": "斗六 (Douliou)", "type": "town", "population": null }, "geometry": { "type": "Point", "coordinates": [ 120.5273501, 23.6976725 ] } },
{ "type": "Feature", "properties": { "osm_id": "60655902", "name": "山上區 (Shanshang)", "type": "town", "population": null }, "geometry": { "type": "Point", "coordinates": [ 120.352908, 23.103223 ] } },
{ "type": "Feature", "properties": { "osm_id": "60655903", "name": "七堵區 (Cidu)", "type": "suburb", "population": null }, "geometry": { "type": "Point", "coordinates": [ 121.7130325, 25.0957389 ] } },
{ "type": "Feature", "properties": { "osm_id": "60655904", "name": "水里鄉", "type": "town", "population": 18899 }, "geometry": { "type": "Point", "coordinates": [ 120.856044, 23.8113837 ] } },
{ "type": "Feature", "properties": { "osm_id": "60655905", "name": "崙背鄉 (Lunbei)", "type": "town", "population": null }, "geometry": { "type": "Point", "coordinates": [ 120.353895, 23.75884 ] } },
{ "type": "Feature", "properties": { "osm_id": "60655906", "name": "前鎮區 (Cianjhen District)", "type": "suburb", "population": null }, "geometry": { "type": "Point", "coordinates": [ 120.318583, 22.586425 ] } },
{ "type": "Feature", "properties": { "osm_id": "60655907", "name": "大雅區", "type": "suburb", "population": null }, "geometry": { "type": "Point", "coordinates": [ 120.64778, 24.22923 ] } },
{ "type": "Feature", "properties": { "osm_id": "60655908", "name": "海端鄉 (Haiduan)", "type": "town", "population": null }, "geometry": { "type": "Point", "coordinates": [ 121.174864, 23.107267 ] } },
{ "type": "Feature", "properties": { "osm_id": "60655909", "name": "崁頂鄉 (Kanding)", "type": "town", "population": null }, "geometry": { "type": "Point", "coordinates": [ 120.514571, 22.514795 ] } },
{ "type": "Feature", "properties": { "osm_id": "60655910", "name": "湖西鄉", "type": "town", "population": null }, "geometry": { "type": "Point", "coordinates": [ 119.65285, 23.5837833 ] } },
{ "type": "Feature", "properties": { "osm_id": "60655911", "name": "安平區", "type": "suburb", "population": null }, "geometry": { "type": "Point", "coordinates": [ 120.16681, 23.000763 ] } },
{ "type": "Feature", "properties": { "osm_id": "60655912", "name": "關廟區", "type": "town", "population": null }, "geometry": { "type": "Point", "coordinates": [ 120.327689, 22.962949 ] } },
{ "type": "Feature", "properties": { "osm_id": "60655913", "name": "銅鑼鄉", "type": "town", "population": null }, "geometry": { "type": "Point", "coordinates": [ 120.7879333, 24.4869833 ] } },
{ "type": "Feature", "properties": { "osm_id": "60655914", "name": "七美鄉", "type": "town", "population": null }, "geometry": { "type": "Point", "coordinates": [ 119.4245667, 23.20675 ] } },
{ "type": "Feature", "properties": { "osm_id": "60655915", "name": "西屯區", "type": "suburb", "population": null }, "geometry": { "type": "Point", "coordinates": [ 120.633655, 24.1653026 ] } },
{ "type": "Feature", "properties": { "osm_id": "60655916", "name": "北港鎮 (Beigang)", "type": "town", "population": null }, "geometry": { "type": "Point", "coordinates": [ 120.302393, 23.575525 ] } },
{ "type": "Feature", "properties": { "osm_id": "60655917", "name": "金沙鎮", "type": "town", "population": null }, "geometry": { "type": "Point", "coordinates": [ 118.4130667, 24.4888 ] } },
{ "type": "Feature", "properties": { "osm_id": "60655918", "name": "臺中市", "type": "city", "population": null }, "geometry": { "type": "Point", "coordinates": [ 120.6479097, 24.1632923 ] } },
{ "type": "Feature", "properties": { "osm_id": "60655920", "name": "鳳林鎮 (Fenglin)", "type": "town", "population": null }, "geometry": { "type": "Point", "coordinates": [ 121.451687, 23.744648 ] } },
{ "type": "Feature", "properties": { "osm_id": "60655921", "name": "員山鄉 (Yuanshan)", "type": "town", "population": null }, "geometry": { "type": "Point", "coordinates": [ 121.723372, 24.743183 ] } },
{ "type": "Feature", "properties": { "osm_id": "60655922", "name": "嘉義市", "type": "city", "population": null }, "geometry": { "type": "Point", "coordinates": [ 120.452538, 23.481568 ] } },
{ "type": "Feature", "properties": { "osm_id": "60655923", "name": "北區", "type": "suburb", "population": null }, "geometry": { "type": "Point", "coordinates": [ 120.6824183, 24.1658812 ] } },
{ "type": "Feature", "properties": { "osm_id": "60655924", "name": "潮州鎮 (Chaojhou)", "type": "town", "population": null }, "geometry": { "type": "Point", "coordinates": [ 120.542854, 22.5505357 ] } },
{ "type": "Feature", "properties": { "osm_id": "60655925", "name": "東區", "type": "suburb", "population": null }, "geometry": { "type": "Point", "coordinates": [ 120.704, 24.13662 ] } },
{ "type": "Feature", "properties": { "osm_id": "60655926", "name": "頭城鎮 (Toucheng)", "type": "town", "population": null }, "geometry": { "type": "Point", "coordinates": [ 121.823307, 24.859217 ] } },
{ "type": "Feature", "properties": { "osm_id": "60655927", "name": "梓官區", "type": "suburb", "population": null }, "geometry": { "type": "Point", "coordinates": [ 120.267322, 22.760475 ] } },
{ "type": "Feature", "properties": { "osm_id": "60655928", "name": "吉安鄉 (Ji-an)", "type": "town", "population": null }, "geometry": { "type": "Point", "coordinates": [ 121.563567, 23.972698 ] } },
{ "type": "Feature", "properties": { "osm_id": "60655929", "name": "金寧鄉", "type": "town", "population": null }, "geometry": { "type": "Point", "coordinates": [ 118.33495, 24.4508667 ] } },
{ "type": "Feature", "properties": { "osm_id": "60655930", "name": "三星鄉 (Sansing)", "type": "town", "population": null }, "geometry": { "type": "Point", "coordinates": [ 121.6532292, 24.6659634 ] } },
{ "type": "Feature", "properties": { "osm_id": "60655931", "name": "大城鄉", "type": "town", "population": null }, "geometry": { "type": "Point", "coordinates": [ 120.3207667, 23.8523 ] } },
{ "type": "Feature", "properties": { "osm_id": "60655932", "name": "番路鄉 (Fanlu)", "type": "town", "population": null }, "geometry": { "type": "Point", "coordinates": [ 120.555043, 23.465222 ] } },
{ "type": "Feature", "properties": { "osm_id": "60655933", "name": "大同區 (Datong Dist.)", "type": "suburb", "population": null }, "geometry": { "type": "Point", "coordinates": [ 121.515514, 25.065986 ] } },
{ "type": "Feature", "properties": { "osm_id": "60655934", "name": "官田區 (Guantian)", "type": "town", "population": null }, "geometry": { "type": "Point", "coordinates": [ 120.3143735, 23.1946516 ] } },
{ "type": "Feature", "properties": { "osm_id": "60655935", "name": "新社區", "type": "suburb", "population": null }, "geometry": { "type": "Point", "coordinates": [ 120.8095, 24.23414 ] } },
{ "type": "Feature", "properties": { "osm_id": "60655937", "name": "鳳山區 (Fengshan)", "type": "suburb", "population": null }, "geometry": { "type": "Point", "coordinates": [ 120.3627723, 22.6270943 ] } },
{ "type": "Feature", "properties": { "osm_id": "60655938", "name": "太保市 (Taibao)", "type": "town", "population": null }, "geometry": { "type": "Point", "coordinates": [ 120.332876, 23.459647 ] } },
{ "type": "Feature", "properties": { "osm_id": "60655939", "name": "三芝區 (Sanzhi Dist.)", "type": "suburb", "population": null }, "geometry": { "type": "Point", "coordinates": [ 121.500866, 25.258047 ] } },
{ "type": "Feature", "properties": { "osm_id": "60655940", "name": "豐濱鄉 (Fengbin)", "type": "town", "population": null }, "geometry": { "type": "Point", "coordinates": [ 121.518947, 23.602342 ] } },
{ "type": "Feature", "properties": { "osm_id": "60655941", "name": "通霄鎮", "type": "town", "population": null }, "geometry": { "type": "Point", "coordinates": [ 120.6840667, 24.4909667 ] } },
{ "type": "Feature", "properties": { "osm_id": "60655942", "name": "南化區(Nanhua)", "type": "town", "population": null }, "geometry": { "type": "Point", "coordinates": [ 120.477116, 23.042614 ] } },
{ "type": "Feature", "properties": { "osm_id": "60655947", "name": "延平鄉 (Yanping)", "type": "town", "population": null }, "geometry": { "type": "Point", "coordinates": [ 121.084499, 22.902358 ] } },
{ "type": "Feature", "properties": { "osm_id": "60655948", "name": "萬華區", "type": "suburb", "population": null }, "geometry": { "type": "Point", "coordinates": [ 121.4993322, 25.0319327 ] } },
{ "type": "Feature", "properties": { "osm_id": "60655949", "name": "南區", "type": "suburb", "population": null }, "geometry": { "type": "Point", "coordinates": [ 120.1883637, 22.9610779 ] } },
{ "type": "Feature", "properties": { "osm_id": "60655950", "name": "左營區 (Zuoying)", "type": "suburb", "population": null }, "geometry": { "type": "Point", "coordinates": [ 120.2949581, 22.690124 ] } },
{ "type": "Feature", "properties": { "osm_id": "60655951", "name": "西湖鄉", "type": "town", "population": null }, "geometry": { "type": "Point", "coordinates": [ 120.7570834, 24.5568122 ] } },
{ "type": "Feature", "properties": { "osm_id": "60655952", "name": "長治鄉 (Changzhi)", "type": "town", "population": null }, "geometry": { "type": "Point", "coordinates": [ 120.527614, 22.677062 ] } },
{ "type": "Feature", "properties": { "osm_id": "60655953", "name": "松山區 (Songshan Dist.)", "type": "suburb", "population": null }, "geometry": { "type": "Point", "coordinates": [ 121.577206, 25.049698 ] } },
{ "type": "Feature", "properties": { "osm_id": "60655954", "name": "歸仁區", "type": "town", "population": null }, "geometry": { "type": "Point", "coordinates": [ 120.293839, 22.9671694 ] } },
{ "type": "Feature", "properties": { "osm_id": "60655955", "name": "玉井區 (Yujing)", "type": "town", "population": null }, "geometry": { "type": "Point", "coordinates": [ 120.4601099, 23.1238589 ] } },
{ "type": "Feature", "properties": { "osm_id": "60655956", "name": "蘇澳鎮 (Su-ao)", "type": "town", "population": null }, "geometry": { "type": "Point", "coordinates": [ 121.842656, 24.594622 ] } },
{ "type": "Feature", "properties": { "osm_id": "60655957", "name": "大里區", "type": "suburb", "population": null }, "geometry": { "type": "Point", "coordinates": [ 120.67786, 24.09939 ] } },
{ "type": "Feature", "properties": { "osm_id": "60655959", "name": "南州鄉 (Nanjhou)", "type": "town", "population": null }, "geometry": { "type": "Point", "coordinates": [ 120.509808, 22.490192 ] } },
{ "type": "Feature", "properties": { "osm_id": "60655960", "name": "水上鄉 (Shueishang)", "type": "town", "population": null }, "geometry": { "type": "Point", "coordinates": [ 120.397936, 23.4281039 ] } },
{ "type": "Feature", "properties": { "osm_id": "60655961", "name": "永安區", "type": "suburb", "population": null }, "geometry": { "type": "Point", "coordinates": [ 120.225308, 22.81858 ] } },
{ "type": "Feature", "properties": { "osm_id": "60655962", "name": "埔鹽鄉", "type": "town", "population": null }, "geometry": { "type": "Point", "coordinates": [ 120.4635833, 24.0000833 ] } },
{ "type": "Feature", "properties": { "osm_id": "60655963", "name": "宜蘭縣", "type": "county", "population": null }, "geometry": { "type": "Point", "coordinates": [ 121.7635333, 24.7315167 ] } },
{ "type": "Feature", "properties": { "osm_id": "60655964", "name": "萬榮鄉 (Wanrong)", "type": "town", "population": null }, "geometry": { "type": "Point", "coordinates": [ 121.409081, 23.716389 ] } },
{ "type": "Feature", "properties": { "osm_id": "60655965", "name": "苗栗市", "type": "town", "population": null }, "geometry": { "type": "Point", "coordinates": [ 120.8192333, 24.5614833 ] } },
{ "type": "Feature", "properties": { "osm_id": "60655966", "name": "霧臺鄉 (Wutai)", "type": "town", "population": null }, "geometry": { "type": "Point", "coordinates": [ 120.732318, 22.744877 ] } },
{ "type": "Feature", "properties": { "osm_id": "60655967", "name": "萬丹鄉 (Wandan)", "type": "town", "population": null }, "geometry": { "type": "Point", "coordinates": [ 120.484533, 22.589839 ] } },
{ "type": "Feature", "properties": { "osm_id": "60655968", "name": "泰山區 (Taishan Dist.)", "type": "suburb", "population": null }, "geometry": { "type": "Point", "coordinates": [ 121.4308111, 25.058864 ] } },
{ "type": "Feature", "properties": { "osm_id": "60655969", "name": "竹山鎮", "type": "town", "population": null }, "geometry": { "type": "Point", "coordinates": [ 120.672007, 23.757655 ] } },
{ "type": "Feature", "properties": { "osm_id": "60655970", "name": "南投市", "type": "town", "population": null }, "geometry": { "type": "Point", "coordinates": [ 120.6837059, 23.9099561 ] } },
{ "type": "Feature", "properties": { "osm_id": "60655971", "name": "新豐 (Xinfeng)", "type": "town", "population": null }, "geometry": { "type": "Point", "coordinates": [ 120.9866279, 24.902334 ] } },
{ "type": "Feature", "properties": { "osm_id": "60655973", "name": "七股區 (Cigu)", "type": "town", "population": null }, "geometry": { "type": "Point", "coordinates": [ 120.140003, 23.140545 ] } },
{ "type": "Feature", "properties": { "osm_id": "60655976", "name": "仁愛區 (Ren-ai)", "type": "suburb", "population": null }, "geometry": { "type": "Point", "coordinates": [ 121.74094, 25.127526 ] } },
{ "type": "Feature", "properties": { "osm_id": "60655978", "name": "玉里鎮 (Yuli)", "type": "town", "population": null }, "geometry": { "type": "Point", "coordinates": [ 121.316445, 23.336509 ] } },
{ "type": "Feature", "properties": { "osm_id": "60655984", "name": "斗南鎮 (Dounan)", "type": "town", "population": null }, "geometry": { "type": "Point", "coordinates": [ 120.479075, 23.679731 ] } },
{ "type": "Feature", "properties": { "osm_id": "60655986", "name": "美濃區", "type": "suburb", "population": null }, "geometry": { "type": "Point", "coordinates": [ 120.5415297, 22.8978804 ] } },
{ "type": "Feature", "properties": { "osm_id": "60655988", "name": "關西 (Guanxi)", "type": "town", "population": null }, "geometry": { "type": "Point", "coordinates": [ 121.175891, 24.792632 ] } },
{ "type": "Feature", "properties": { "osm_id": "60655989", "name": "中西區", "type": "suburb", "population": null }, "geometry": { "type": "Point", "coordinates": [ 120.2059575, 22.9921516 ] } },
{ "type": "Feature", "properties": { "osm_id": "60655990", "name": "佳里區(Jiali)", "type": "town", "population": null }, "geometry": { "type": "Point", "coordinates": [ 120.1772735, 23.1651815 ] } },
{ "type": "Feature", "properties": { "osm_id": "60655991", "name": "烏日區", "type": "suburb", "population": null }, "geometry": { "type": "Point", "coordinates": [ 120.62381, 24.1045 ] } },
{ "type": "Feature", "properties": { "osm_id": "60655992", "name": "富里鄉 (Fuli)", "type": "town", "population": null }, "geometry": { "type": "Point", "coordinates": [ 121.2501235, 23.1799836 ] } },
{ "type": "Feature", "properties": { "osm_id": "60655993", "name": "文山區 (Wenshan Dist.)", "type": "suburb", "population": null }, "geometry": { "type": "Point", "coordinates": [ 121.570458, 24.989786 ] } },
{ "type": "Feature", "properties": { "osm_id": "60655994", "name": "元長鄉 (Yuanchang)", "type": "town", "population": null }, "geometry": { "type": "Point", "coordinates": [ 120.315124, 23.649458 ] } },
{ "type": "Feature", "properties": { "osm_id": "60655995", "name": "魚池鄉", "type": "town", "population": null }, "geometry": { "type": "Point", "coordinates": [ 120.9360604, 23.8963558 ] } },
{ "type": "Feature", "properties": { "osm_id": "60655996", "name": "口湖鄉 (Kouhu)", "type": "town", "population": null }, "geometry": { "type": "Point", "coordinates": [ 120.18537, 23.582406 ] } },
{ "type": "Feature", "properties": { "osm_id": "60655997", "name": "學甲區 (Syuejia)", "type": "town", "population": null }, "geometry": { "type": "Point", "coordinates": [ 120.1802546, 23.2323477 ] } },
{ "type": "Feature", "properties": { "osm_id": "60655998", "name": "桃源區 (Taoyuan)", "type": "town", "population": null }, "geometry": { "type": "Point", "coordinates": [ 120.760049, 23.159137 ] } },
{ "type": "Feature", "properties": { "osm_id": "60655999", "name": "花壇鄉", "type": "town", "population": null }, "geometry": { "type": "Point", "coordinates": [ 120.5381167, 24.0297 ] } },
{ "type": "Feature", "properties": { "osm_id": "60656000", "name": "士林區 (Shilin Dist.)", "type": "suburb", "population": null }, "geometry": { "type": "Point", "coordinates": [ 121.5232205, 25.0918125 ] } },
{ "type": "Feature", "properties": { "osm_id": "60656001", "name": "竹北市", "type": "town", "population": null }, "geometry": { "type": "Point", "coordinates": [ 121.0043171, 24.8396517 ] } },
{ "type": "Feature", "properties": { "osm_id": "60656002", "name": "大樹區 (Dashu Dist.)", "type": "suburb", "population": null }, "geometry": { "type": "Point", "coordinates": [ 120.433095, 22.693394 ] } },
{ "type": "Feature", "properties": { "osm_id": "60656003", "name": "東勢區", "type": "suburb", "population": null }, "geometry": { "type": "Point", "coordinates": [ 120.82777, 24.25861 ] } },
{ "type": "Feature", "properties": { "osm_id": "60656004", "name": "竹田鄉 (Jhutian)", "type": "town", "population": null }, "geometry": { "type": "Point", "coordinates": [ 120.544038, 22.584678 ] } },
{ "type": "Feature", "properties": { "osm_id": "60656005", "name": "茂林區", "type": "suburb", "population": null }, "geometry": { "type": "Point", "coordinates": [ 120.6632165, 22.8862483 ] } },
{ "type": "Feature", "properties": { "osm_id": "60656006", "name": "大安區", "type": "suburb", "population": null }, "geometry": { "type": "Point", "coordinates": [ 120.58652, 24.34607 ] } },
{ "type": "Feature", "properties": { "osm_id": "60656007", "name": "台西鄉", "type": "town", "population": null }, "geometry": { "type": "Point", "coordinates": [ 120.194474, 23.70042 ] } },
{ "type": "Feature", "properties": { "osm_id": "60656008", "name": "八里區 (Bali Dist.)", "type": "suburb", "population": null }, "geometry": { "type": "Point", "coordinates": [ 121.398227, 25.1466801 ] } },
{ "type": "Feature", "properties": { "osm_id": "60656009", "name": "竹塘鄉", "type": "town", "population": null }, "geometry": { "type": "Point", "coordinates": [ 120.4280167, 23.8607167 ] } },
{ "type": "Feature", "properties": { "osm_id": "60656010", "name": "大湖鄉", "type": "town", "population": null }, "geometry": { "type": "Point", "coordinates": [ 120.8659871, 24.4229865 ] } },
{ "type": "Feature", "properties": { "osm_id": "60656011", "name": "觀音鄉", "type": "town", "population": null }, "geometry": { "type": "Point", "coordinates": [ 121.082255, 25.036385 ] } },
{ "type": "Feature", "properties": { "osm_id": "60656012", "name": "蘆洲區 (Luzhou)", "type": "suburb", "population": null }, "geometry": { "type": "Point", "coordinates": [ 121.4737, 25.084923 ] } },
{ "type": "Feature", "properties": { "osm_id": "60656013", "name": "頭屋鄉", "type": "town", "population": null }, "geometry": { "type": "Point", "coordinates": [ 120.8510333, 24.5776667 ] } },
{ "type": "Feature", "properties": { "osm_id": "60656014", "name": "新營區", "type": "town", "population": null }, "geometry": { "type": "Point", "coordinates": [ 120.3167613, 23.3103061 ] } },
{ "type": "Feature", "properties": { "osm_id": "60656015", "name": "九如鄉 (Jiouru)", "type": "town", "population": null }, "geometry": { "type": "Point", "coordinates": [ 120.490142, 22.739778 ] } },
{ "type": "Feature", "properties": { "osm_id": "60656016", "name": "龜山鄉 (Gueishan)", "type": "town", "population": null }, "geometry": { "type": "Point", "coordinates": [ 121.337767, 24.992517 ] } },
{ "type": "Feature", "properties": { "osm_id": "60656017", "name": "二水鄉", "type": "town", "population": null }, "geometry": { "type": "Point", "coordinates": [ 120.6188833, 23.8065 ] } },
{ "type": "Feature", "properties": { "osm_id": "60656018", "name": "內湖區 (Neihu Dist.)", "type": "suburb", "population": null }, "geometry": { "type": "Point", "coordinates": [ 121.5889983, 25.069664 ] } },
{ "type": "Feature", "properties": { "osm_id": "60656019", "name": "新竹市", "type": "city", "population": null }, "geometry": { "type": "Point", "coordinates": [ 120.9686833, 24.8066333 ] } },
{ "type": "Feature", "properties": { "osm_id": "179166639", "name": "都蘭 (Dulan)", "type": "village", "population": null }, "geometry": { "type": "Point", "coordinates": [ 121.2263618, 22.8741559 ] } },
{ "type": "Feature", "properties": { "osm_id": "179166651", "name": "知本 (KatatipuL)", "type": "suburb", "population": null }, "geometry": { "type": "Point", "coordinates": [ 121.0531069, 22.7061818 ] } },
{ "type": "Feature", "properties": { "osm_id": "188267559", "name": "東澳", "type": "village", "population": null }, "geometry": { "type": "Point", "coordinates": [ 121.8309571, 24.5184994 ] } },
{ "type": "Feature", "properties": { "osm_id": "206043176", "name": "Tongmen", "type": "village", "population": null }, "geometry": { "type": "Point", "coordinates": [ 121.4940623, 23.9646846 ] } },
{ "type": "Feature", "properties": { "osm_id": "206214300", "name": "Tonglan", "type": "village", "population": null }, "geometry": { "type": "Point", "coordinates": [ 121.5075456, 23.9490745 ] } },
{ "type": "Feature", "properties": { "osm_id": "206221085", "name": "長橋里 (Changqiao)", "type": "village", "population": null }, "geometry": { "type": "Point", "coordinates": [ 121.4181107, 23.7072371 ] } },
{ "type": "Feature", "properties": { "osm_id": "251529478", "name": "豐南", "type": "village", "population": null }, "geometry": { "type": "Point", "coordinates": [ 121.2698733, 23.1430269 ] } },
{ "type": "Feature", "properties": { "osm_id": "255994649", "name": "JiaNan", "type": "locality", "population": null }, "geometry": { "type": "Point", "coordinates": [ 120.6012586, 24.3061169 ] } },
{ "type": "Feature", "properties": { "osm_id": "259978431", "name": "八卦寮", "type": "suburb", "population": null }, "geometry": { "type": "Point", "coordinates": [ 120.333871, 22.6868746 ] } },
{ "type": "Feature", "properties": { "osm_id": "281655878", "name": "西子灣", "type": "locality", "population": null }, "geometry": { "type": "Point", "coordinates": [ 120.2636225, 22.6258112 ] } },
{ "type": "Feature", "properties": { "osm_id": "286763837", "name": "下龜殼", "type": "village", "population": null }, "geometry": { "type": "Point", "coordinates": [ 120.5798, 24.3611167 ] } },
{ "type": "Feature", "properties": { "osm_id": "286764152", "name": "溫寮", "type": "locality", "population": null }, "geometry": { "type": "Point", "coordinates": [ 120.5834919, 24.3724178 ] } },
{ "type": "Feature", "properties": { "osm_id": "286764876", "name": "腳踏", "type": "locality", "population": null }, "geometry": { "type": "Point", "coordinates": [ 120.5939966, 24.3702206 ] } },
{ "type": "Feature", "properties": { "osm_id": "286764877", "name": "德化", "type": "locality", "population": null }, "geometry": { "type": "Point", "coordinates": [ 120.6233074, 24.3638284 ] } },
{ "type": "Feature", "properties": { "osm_id": "286764878", "name": "松子腳", "type": "locality", "population": null }, "geometry": { "type": "Point", "coordinates": [ 120.6036692, 24.3619856 ] } },
{ "type": "Feature", "properties": { "osm_id": "286764879", "name": "頂庄", "type": "locality", "population": null }, "geometry": { "type": "Point", "coordinates": [ 120.5882592, 24.3456166 ] } },
{ "type": "Feature", "properties": { "osm_id": "289554109", "name": "和平", "type": "village", "population": null }, "geometry": { "type": "Point", "coordinates": [ 121.7491599, 24.3096358 ] } },
{ "type": "Feature", "properties": { "osm_id": "291592337", "name": "舊港口", "type": "hamlet", "population": null }, "geometry": { "type": "Point", "coordinates": [ 120.2301679, 22.798934 ] } },
{ "type": "Feature", "properties": { "osm_id": "292780341", "name": "南方澳 (Nanfang-ao)", "type": "suburb", "population": null }, "geometry": { "type": "Point", "coordinates": [ 121.8654649, 24.5826769 ] } },
{ "type": "Feature", "properties": { "osm_id": "292885078", "name": "林美村 (Linmei)", "type": "village", "population": null }, "geometry": { "type": "Point", "coordinates": [ 121.7514676, 24.8178078 ] } },
{ "type": "Feature", "properties": { "osm_id": "296143796", "name": "大樹林區 (Dashulin)", "type": "suburb", "population": null }, "geometry": { "type": "Point", "coordinates": [ 121.3163698, 24.9794311 ] } },
{ "type": "Feature", "properties": { "osm_id": "296143798", "name": "中路區 (Zhonglu)", "type": "suburb", "population": null }, "geometry": { "type": "Point", "coordinates": [ 121.2863084, 24.9919 ] } },
{ "type": "Feature", "properties": { "osm_id": "296143799", "name": "埔子區 (Puzih)", "type": "suburb", "population": null }, "geometry": { "type": "Point", "coordinates": [ 121.2882231, 25.0160292 ] } },
{ "type": "Feature", "properties": { "osm_id": "296143800", "name": "會稽區 (Huiji)", "type": "suburb", "population": null }, "geometry": { "type": "Point", "coordinates": [ 121.3155031, 25.0103969 ] } },
{ "type": "Feature", "properties": { "osm_id": "300869497", "name": "下三座屋", "type": "locality", "population": null }, "geometry": { "type": "Point", "coordinates": [ 121.2024907, 24.9710178 ] } },
{ "type": "Feature", "properties": { "osm_id": "302211767", "name": "橫圳", "type": "locality", "population": null }, "geometry": { "type": "Point", "coordinates": [ 120.6146543, 24.3570186 ] } },
{ "type": "Feature", "properties": { "osm_id": "303558350", "name": "九份", "type": "village", "population": null }, "geometry": { "type": "Point", "coordinates": [ 121.845069, 25.1116561 ] } },
{ "type": "Feature", "properties": { "osm_id": "303892436", "name": "月眉", "type": "locality", "population": null }, "geometry": { "type": "Point", "coordinates": [ 120.6925829, 24.3139517 ] } },
{ "type": "Feature", "properties": { "osm_id": "303892440", "name": "大甲東", "type": "locality", "population": null }, "geometry": { "type": "Point", "coordinates": [ 120.643744, 24.3425636 ] } },
{ "type": "Feature", "properties": { "osm_id": "304186308", "name": "永安 (Yongan)", "type": "village", "population": null }, "geometry": { "type": "Point", "coordinates": [ 121.0370359, 24.9914088 ] } },
{ "type": "Feature", "properties": { "osm_id": "305639278", "name": "Taiwan Strait", "type": "locality", "population": null }, "geometry": { "type": "Point", "coordinates": [ 119.0, 24.0 ] } },
{ "type": "Feature", "properties": { "osm_id": "309905017", "name": "鐵線橋", "type": "village", "population": null }, "geometry": { "type": "Point", "coordinates": [ 120.2757585, 23.2657843 ] } },
{ "type": "Feature", "properties": { "osm_id": "336445102", "name": "後厝子", "type": "locality", "population": null }, "geometry": { "type": "Point", "coordinates": [ 120.6035487, 24.3364556 ] } },
{ "type": "Feature", "properties": { "osm_id": "337643448", "name": "玉庫", "type": "village", "population": null }, "geometry": { "type": "Point", "coordinates": [ 120.3088303, 22.8437002 ] } },
{ "type": "Feature", "properties": { "osm_id": "343083589", "name": "水柳", "type": "locality", "population": null }, "geometry": { "type": "Point", "coordinates": [ 120.6010165, 24.3719428 ] } },
{ "type": "Feature", "properties": { "osm_id": "343083607", "name": "福住庄", "type": "locality", "population": null }, "geometry": { "type": "Point", "coordinates": [ 120.6029362, 24.3805454 ] } },
{ "type": "Feature", "properties": { "osm_id": "343083621", "name": "田心仔", "type": "locality", "population": null }, "geometry": { "type": "Point", "coordinates": [ 120.6008688, 24.3948447 ] } },
{ "type": "Feature", "properties": { "osm_id": "343083634", "name": "五甲", "type": "locality", "population": null }, "geometry": { "type": "Point", "coordinates": [ 120.5921145, 24.3927497 ] } },
{ "type": "Feature", "properties": { "osm_id": "343083649", "name": "北汕", "type": "locality", "population": null }, "geometry": { "type": "Point", "coordinates": [ 120.5868104, 24.3843421 ] } },
{ "type": "Feature", "properties": { "osm_id": "343083713", "name": "頂店", "type": "locality", "population": null }, "geometry": { "type": "Point", "coordinates": [ 120.632668, 24.3577979 ] } },
{ "type": "Feature", "properties": { "osm_id": "348200129", "name": "頂大安", "type": "locality", "population": null }, "geometry": { "type": "Point", "coordinates": [ 120.6167965, 24.3847695 ] } },
{ "type": "Feature", "properties": { "osm_id": "412681343", "name": "霧社", "type": "village", "population": null }, "geometry": { "type": "Point", "coordinates": [ 121.1319927, 24.02152 ] } },
{ "type": "Feature", "properties": { "osm_id": "432425099", "name": "台灣", "type": "country", "population": 23127845 }, "geometry": { "type": "Point", "coordinates": [ 120.9820179, 23.9739374 ] } },
{ "type": "Feature", "properties": { "osm_id": "601037301", "name": "鹽寮村 (Yanliao)", "type": "village", "population": null }, "geometry": { "type": "Point", "coordinates": [ 121.6001383, 23.8787927 ] } },
{ "type": "Feature", "properties": { "osm_id": "601037304", "name": "福德 (Fude)", "type": "hamlet", "population": null }, "geometry": { "type": "Point", "coordinates": [ 121.6018857, 23.889187 ] } },
{ "type": "Feature", "properties": { "osm_id": "601381746", "name": "水璉村 (Shuilian)", "type": "village", "population": null }, "geometry": { "type": "Point", "coordinates": [ 121.5628331, 23.7844115 ] } },
{ "type": "Feature", "properties": { "osm_id": "613538007", "name": "大有", "type": "locality", "population": null }, "geometry": { "type": "Point", "coordinates": [ 120.3075178, 23.7597008 ] } },
{ "type": "Feature", "properties": { "osm_id": "649286119", "name": "大全村 (Daquan)", "type": "village", "population": null }, "geometry": { "type": "Point", "coordinates": [ 121.4092829, 23.6591184 ] } },
{ "type": "Feature", "properties": { "osm_id": "696425711", "name": "特富野社區 (Tfuya)", "type": "village", "population": null }, "geometry": { "type": "Point", "coordinates": [ 120.75259, 23.4617798 ] } },
{ "type": "Feature", "properties": { "osm_id": "696426157", "name": "達邦村 (Tabangu)", "type": "village", "population": null }, "geometry": { "type": "Point", "coordinates": [ 120.7507105, 23.4552339 ] } },
{ "type": "Feature", "properties": { "osm_id": "800396814", "name": "天祥", "type": "village", "population": null }, "geometry": { "type": "Point", "coordinates": [ 121.4930833, 24.1836333 ] } },
{ "type": "Feature", "properties": { "osm_id": "884856798", "name": "豐山村 (Fongshan)", "type": "village", "population": null }, "geometry": { "type": "Point", "coordinates": [ 121.4920454, 23.8502086 ] } },
{ "type": "Feature", "properties": { "osm_id": "884857057", "name": "光榮村 (Guangrong)", "type": "village", "population": null }, "geometry": { "type": "Point", "coordinates": [ 121.5145025, 23.8822294 ] } },
{ "type": "Feature", "properties": { "osm_id": "884857339", "name": "林榮里 (Linrong)", "type": "village", "population": null }, "geometry": { "type": "Point", "coordinates": [ 121.4521297, 23.8025339 ] } },
{ "type": "Feature", "properties": { "osm_id": "884857630", "name": "平和村 (Pinghe)", "type": "village", "population": null }, "geometry": { "type": "Point", "coordinates": [ 121.5201289, 23.8840473 ] } },
{ "type": "Feature", "properties": { "osm_id": "884857831", "name": "溪口村 (Xikou)", "type": "village", "population": null }, "geometry": { "type": "Point", "coordinates": [ 121.4732433, 23.8200118 ] } },
{ "type": "Feature", "properties": { "osm_id": "884858161", "name": "志學村 (Jhisyue)", "type": "village", "population": null }, "geometry": { "type": "Point", "coordinates": [ 121.5308445, 23.9073352 ] } },
{ "type": "Feature", "properties": { "osm_id": "884858691", "name": "豐裡村 (Fongli)", "type": "village", "population": null }, "geometry": { "type": "Point", "coordinates": [ 121.5036905, 23.8414667 ] } },
{ "type": "Feature", "properties": { "osm_id": "887447879", "name": "太巴塱 (Tafalong)", "type": "village", "population": null }, "geometry": { "type": "Point", "coordinates": [ 121.4515745, 23.6582292 ] } },
{ "type": "Feature", "properties": { "osm_id": "887614338", "name": "赤科山 (Chihkeshan)", "type": "locality", "population": null }, "geometry": { "type": "Point", "coordinates": [ 121.3877835, 23.3882333 ] } },
{ "type": "Feature", "properties": { "osm_id": "887614627", "name": "三民里 (Sanmin)", "type": "\"三民里\"", "population": null }, "geometry": { "type": "Point", "coordinates": [ 121.3490275, 23.4268386 ] } },
{ "type": "Feature", "properties": { "osm_id": "887615414", "name": "高寮 (Gaoliao)", "type": "village", "population": null }, "geometry": { "type": "Point", "coordinates": [ 121.3583007, 23.3814236 ] } },
{ "type": "Feature", "properties": { "osm_id": "888761470", "name": "國武里 (Guowu)", "type": "yes", "population": null }, "geometry": { "type": "Point", "coordinates": [ 121.3206832, 23.3342661 ] } },
{ "type": "Feature", "properties": { "osm_id": "888761482", "name": "源城里 (Yuancheng)", "type": "village", "population": null }, "geometry": { "type": "Point", "coordinates": [ 121.3120584, 23.3192706 ] } },
{ "type": "Feature", "properties": { "osm_id": "888761488", "name": "永昌里 (Yongchang)", "type": "village", "population": null }, "geometry": { "type": "Point", "coordinates": [ 121.3096599, 23.3426371 ] } },
{ "type": "Feature", "properties": { "osm_id": "888761493", "name": "觀音里 (Guanyin)", "type": "village", "population": null }, "geometry": { "type": "Point", "coordinates": [ 121.355354, 23.3862837 ] } },
{ "type": "Feature", "properties": { "osm_id": "888761507", "name": "東豐里 (Dongfeng)", "type": "village", "population": null }, "geometry": { "type": "Point", "coordinates": [ 121.346856, 23.3442987 ] } },
{ "type": "Feature", "properties": { "osm_id": "888761509", "name": "大禹里 (Dayu)", "type": "village", "population": null }, "geometry": { "type": "Point", "coordinates": [ 121.3286764, 23.3837162 ] } },
{ "type": "Feature", "properties": { "osm_id": "888761524", "name": "松浦里 (Songpu)", "type": "village", "population": null }, "geometry": { "type": "Point", "coordinates": [ 121.3787055, 23.4315533 ] } },
{ "type": "Feature", "properties": { "osm_id": "888761531", "name": "啟模里 (Qimo)", "type": "village", "population": null }, "geometry": { "type": "Point", "coordinates": [ 121.3205175, 23.3434742 ] } },
{ "type": "Feature", "properties": { "osm_id": "888761540", "name": "春日里 (Chunri)", "type": "village", "population": null }, "geometry": { "type": "Point", "coordinates": [ 121.3945061, 23.4560208 ] } },
{ "type": "Feature", "properties": { "osm_id": "888761546", "name": "樂合里 (Lehe)", "type": "village", "population": null }, "geometry": { "type": "Point", "coordinates": [ 121.3439124, 23.314988 ] } },
{ "type": "Feature", "properties": { "osm_id": "888761552", "name": "泰昌里 (Taichang)", "type": "village", "population": null }, "geometry": { "type": "Point", "coordinates": [ 121.3062203, 23.3385277 ] } },
{ "type": "Feature", "properties": { "osm_id": "888761571", "name": "長良里 (Changliang)", "type": "village", "population": null }, "geometry": { "type": "Point", "coordinates": [ 121.3073158, 23.2932825 ] } },
{ "type": "Feature", "properties": { "osm_id": "888761574", "name": "中城里 (Zhongcheng)", "type": "suburb", "population": null }, "geometry": { "type": "Point", "coordinates": [ 121.3167463, 23.3261228 ] } },
{ "type": "Feature", "properties": { "osm_id": "888761582", "name": "德武里 (Dewu)", "type": "village", "population": null }, "geometry": { "type": "Point", "coordinates": [ 121.4082156, 23.4792589 ] } },
{ "type": "Feature", "properties": { "osm_id": "899159551", "name": "車埕", "type": "suburb", "population": null }, "geometry": { "type": "Point", "coordinates": [ 120.8648392, 23.8338965 ] } },
{ "type": "Feature", "properties": { "osm_id": "925977314", "name": "汐止區 (Xizhi Dist.)", "type": "suburb", "population": null }, "geometry": { "type": "Point", "coordinates": [ 121.6294697, 25.0629987 ] } },
{ "type": "Feature", "properties": { "osm_id": "925984047", "name": "南港區 (Nangang District)", "type": "suburb", "population": null }, "geometry": { "type": "Point", "coordinates": [ 121.6124062, 25.032458 ] } },
{ "type": "Feature", "properties": { "osm_id": "928633612", "name": "內湖區 (Neihu Dist.)", "type": "suburb", "population": null }, "geometry": { "type": "Point", "coordinates": [ 121.5852571, 25.0868802 ] } },
{ "type": "Feature", "properties": { "osm_id": "940950030", "name": "Youzihhu", "type": "locality", "population": null }, "geometry": { "type": "Point", "coordinates": [ 121.5100718, 22.6668395 ] } },
{ "type": "Feature", "properties": { "osm_id": "972010113", "name": "新庄子", "type": "hamlet", "population": null }, "geometry": { "type": "Point", "coordinates": [ 120.9860216, 24.9031458 ] } },
{ "type": "Feature", "properties": { "osm_id": "972017859", "name": "埔和", "type": "hamlet", "population": null }, "geometry": { "type": "Point", "coordinates": [ 120.9778062, 24.916656 ] } },
{ "type": "Feature", "properties": { "osm_id": "1067352387", "name": "內灣 (Neiwan)", "type": "village", "population": null }, "geometry": { "type": "Point", "coordinates": [ 121.1813894, 24.7065022 ] } },
{ "type": "Feature", "properties": { "osm_id": "1098350559", "name": "龍田村 (Longtian)", "type": "village", "population": null }, "geometry": { "type": "Point", "coordinates": [ 121.119403, 22.9058182 ] } },
{ "type": "Feature", "properties": { "osm_id": "1125513718", "name": "墾丁", "type": "town", "population": null }, "geometry": { "type": "Point", "coordinates": [ 120.7983455, 21.9445952 ] } },
{ "type": "Feature", "properties": { "osm_id": "1147314253", "name": "臺北市", "type": "city", "population": 2618772 }, "geometry": { "type": "Point", "coordinates": [ 121.5637, 25.0375167 ] } },
{ "type": "Feature", "properties": { "osm_id": "1149810169", "name": "野柳", "type": "village", "population": null }, "geometry": { "type": "Point", "coordinates": [ 121.6883819, 25.2034359 ] } },
{ "type": "Feature", "properties": { "osm_id": "1149921087", "name": "和平島", "type": "hamlet", "population": null }, "geometry": { "type": "Point", "coordinates": [ 121.7662914, 25.1597132 ] } },
{ "type": "Feature", "properties": { "osm_id": "1169654972", "name": "大竹", "type": "hamlet", "population": null }, "geometry": { "type": "Point", "coordinates": [ 120.5816686, 24.0856053 ] } },
{ "type": "Feature", "properties": { "osm_id": "1244384672", "name": "十九甲", "type": "hamlet", "population": null }, "geometry": { "type": "Point", "coordinates": [ 120.70936, 24.1104 ] } },
{ "type": "Feature", "properties": { "osm_id": "1256390620", "name": "內壢", "type": "suburb", "population": null }, "geometry": { "type": "Point", "coordinates": [ 121.2533611, 24.9755552 ] } },
{ "type": "Feature", "properties": { "osm_id": "1256485307", "name": "中壢市 (Zhongli City)", "type": "town", "population": null }, "geometry": { "type": "Point", "coordinates": [ 121.224926, 24.9653531 ] } },
{ "type": "Feature", "properties": { "osm_id": "1293150757", "name": "龍岡 Longgang", "type": "locality", "population": null }, "geometry": { "type": "Point", "coordinates": [ 121.2455465, 24.931743 ] } },
{ "type": "Feature", "properties": { "osm_id": "1293152183", "name": "青埔 QingPu", "type": "suburb", "population": null }, "geometry": { "type": "Point", "coordinates": [ 121.2139173, 25.0053906 ] } },
{ "type": "Feature", "properties": { "osm_id": "1293152550", "name": "大崙DaLun", "type": "suburb", "population": null }, "geometry": { "type": "Point", "coordinates": [ 121.1777247, 24.9910597 ] } },
{ "type": "Feature", "properties": { "osm_id": "1293152844", "name": "南勢NanShih", "type": "suburb", "population": null }, "geometry": { "type": "Point", "coordinates": [ 121.2090915, 24.9142699 ] } },
{ "type": "Feature", "properties": { "osm_id": "1293152845", "name": "北勢BeiShih", "type": "suburb", "population": null }, "geometry": { "type": "Point", "coordinates": [ 121.2203546, 24.9332214 ] } },
{ "type": "Feature", "properties": { "osm_id": "1293154741", "name": "山仔頂ShanZhiDing", "type": "suburb", "population": null }, "geometry": { "type": "Point", "coordinates": [ 121.2105721, 24.9008412 ] } },
{ "type": "Feature", "properties": { "osm_id": "1431245663", "name": "吉峰里", "type": "village", "population": null }, "geometry": { "type": "Point", "coordinates": [ 120.7142614, 24.0761187 ] } },
{ "type": "Feature", "properties": { "osm_id": "1431364173", "name": "東引鄉", "type": "town", "population": null }, "geometry": { "type": "Point", "coordinates": [ 120.48995, 26.3671167 ] } },
{ "type": "Feature", "properties": { "osm_id": "1431372993", "name": "烏坵鄉", "type": "town", "population": null }, "geometry": { "type": "Point", "coordinates": [ 119.4520405, 24.9923118 ] } },
{ "type": "Feature", "properties": { "osm_id": "1433496556", "name": "祥興里", "type": "village", "population": null }, "geometry": { "type": "Point", "coordinates": [ 120.6873772, 24.1217158 ] } },
{ "type": "Feature", "properties": { "osm_id": "1450992897", "name": "內門區", "type": "suburb", "population": null }, "geometry": { "type": "Point", "coordinates": [ 120.4623508, 22.9434369 ] } },
{ "type": "Feature", "properties": { "osm_id": "1492149464", "name": "中營", "type": "village", "population": null }, "geometry": { "type": "Point", "coordinates": [ 120.2749339, 23.2142909 ] } },
{ "type": "Feature", "properties": { "osm_id": "1492227112", "name": "子龍廟", "type": "village", "population": null }, "geometry": { "type": "Point", "coordinates": [ 120.2077956, 23.1756085 ] } },
{ "type": "Feature", "properties": { "osm_id": "1492227159", "name": "葱仔寮", "type": "hamlet", "population": null }, "geometry": { "type": "Point", "coordinates": [ 120.2096195, 23.1920591 ] } },
{ "type": "Feature", "properties": { "osm_id": "1492227183", "name": "麻豆口", "type": "hamlet", "population": null }, "geometry": { "type": "Point", "coordinates": [ 120.219449, 23.1781124 ] } },
{ "type": "Feature", "properties": { "osm_id": "1493107232", "name": "莊禮寮", "type": "hamlet", "population": null }, "geometry": { "type": "Point", "coordinates": [ 120.2118026, 23.1955117 ] } },
{ "type": "Feature", "properties": { "osm_id": "1493110017", "name": "埤頭", "type": "village", "population": null }, "geometry": { "type": "Point", "coordinates": [ 120.2262928, 23.1930775 ] } },
{ "type": "Feature", "properties": { "osm_id": "1493110018", "name": "小埤頭", "type": "village", "population": null }, "geometry": { "type": "Point", "coordinates": [ 120.2321293, 23.1937481 ] } },
{ "type": "Feature", "properties": { "osm_id": "1493110019", "name": "大山腳", "type": "hamlet", "population": null }, "geometry": { "type": "Point", "coordinates": [ 120.2207353, 23.1939848 ] } },
{ "type": "Feature", "properties": { "osm_id": "1494001184", "name": "西寮", "type": "hamlet", "population": null }, "geometry": { "type": "Point", "coordinates": [ 120.263054, 23.2076757 ] } },
{ "type": "Feature", "properties": { "osm_id": "1494001218", "name": "連表", "type": "hamlet", "population": null }, "geometry": { "type": "Point", "coordinates": [ 120.26638, 23.2106338 ] } },
{ "type": "Feature", "properties": { "osm_id": "1494001229", "name": "西庒", "type": "village", "population": null }, "geometry": { "type": "Point", "coordinates": [ 120.2970451, 23.1862565 ] } },
{ "type": "Feature", "properties": { "osm_id": "1494001237", "name": "寮仔廓", "type": "village", "population": null }, "geometry": { "type": "Point", "coordinates": [ 120.2831384, 23.1896886 ] } },
{ "type": "Feature", "properties": { "osm_id": "1494226671", "name": "港仔尾", "type": "hamlet", "population": null }, "geometry": { "type": "Point", "coordinates": [ 120.2051397, 23.2056116 ] } },
{ "type": "Feature", "properties": { "osm_id": "1494401887", "name": "海浦", "type": "village", "population": null }, "geometry": { "type": "Point", "coordinates": [ 120.2133679, 23.2028543 ] } },
{ "type": "Feature", "properties": { "osm_id": "1495580037", "name": "方厝寮", "type": "hamlet", "population": null }, "geometry": { "type": "Point", "coordinates": [ 120.2325009, 23.1558741 ] } },
{ "type": "Feature", "properties": { "osm_id": "1495614233", "name": "謝厝寮", "type": "village", "population": null }, "geometry": { "type": "Point", "coordinates": [ 120.2357142, 23.149245 ] } },
{ "type": "Feature", "properties": { "osm_id": "1495614431", "name": "安業", "type": "village", "population": null }, "geometry": { "type": "Point", "coordinates": [ 120.2443723, 23.1591984 ] } },
{ "type": "Feature", "properties": { "osm_id": "1497204411", "name": "茅港尾", "type": "hamlet", "population": null }, "geometry": { "type": "Point", "coordinates": [ 120.2832359, 23.2174777 ] } },
{ "type": "Feature", "properties": { "osm_id": "1497204452", "name": "橋頭仔", "type": "hamlet", "population": null }, "geometry": { "type": "Point", "coordinates": [ 120.2830428, 23.2328189 ] } },
{ "type": "Feature", "properties": { "osm_id": "1497204555", "name": "橋南仔", "type": "hamlet", "population": null }, "geometry": { "type": "Point", "coordinates": [ 120.2843088, 23.2253457 ] } },
{ "type": "Feature", "properties": { "osm_id": "1498398265", "name": "潭漧", "type": "hamlet", "population": null }, "geometry": { "type": "Point", "coordinates": [ 120.2012657, 23.1762595 ] } },
{ "type": "Feature", "properties": { "osm_id": "1498398277", "name": "謝榜寮", "type": "hamlet", "population": null }, "geometry": { "type": "Point", "coordinates": [ 120.1994436, 23.1967519 ] } },
{ "type": "Feature", "properties": { "osm_id": "1498398279", "name": "埤仔尾", "type": "hamlet", "population": null }, "geometry": { "type": "Point", "coordinates": [ 120.2158373, 23.1998484 ] } },
{ "type": "Feature", "properties": { "osm_id": "1498398308", "name": "營頂", "type": "village", "population": null }, "geometry": { "type": "Point", "coordinates": [ 120.189101, 23.2002231 ] } },
{ "type": "Feature", "properties": { "osm_id": "1498398338", "name": "佳里興", "type": "village", "population": null }, "geometry": { "type": "Point", "coordinates": [ 120.1876615, 23.1914082 ] } },
{ "type": "Feature", "properties": { "osm_id": "1498398353", "name": "菜寮", "type": "hamlet", "population": null }, "geometry": { "type": "Point", "coordinates": [ 120.1989053, 23.1748392 ] } },
{ "type": "Feature", "properties": { "osm_id": "1498398354", "name": "新宅", "type": "hamlet", "population": null }, "geometry": { "type": "Point", "coordinates": [ 120.1952575, 23.1827689 ] } },
{ "type": "Feature", "properties": { "osm_id": "1498398373", "name": "姓陳寮", "type": "hamlet", "population": null }, "geometry": { "type": "Point", "coordinates": [ 120.2066534, 23.2017615 ] } },
{ "type": "Feature", "properties": { "osm_id": "1498398395", "name": "廟後", "type": "hamlet", "population": null }, "geometry": { "type": "Point", "coordinates": [ 120.227006, 23.2005683 ] } },
{ "type": "Feature", "properties": { "osm_id": "1498398434", "name": "後庒", "type": "hamlet", "population": null }, "geometry": { "type": "Point", "coordinates": [ 120.2038406, 23.1829662 ] } },
{ "type": "Feature", "properties": { "osm_id": "1498428667", "name": "東平寮", "type": "hamlet", "population": null }, "geometry": { "type": "Point", "coordinates": [ 120.2387406, 23.2108173 ] } },
{ "type": "Feature", "properties": { "osm_id": "1498428672", "name": "北路客", "type": "hamlet", "population": null }, "geometry": { "type": "Point", "coordinates": [ 120.226102, 23.2054235 ] } },
{ "type": "Feature", "properties": { "osm_id": "1498428707", "name": "西平寮", "type": "hamlet", "population": null }, "geometry": { "type": "Point", "coordinates": [ 120.2329899, 23.2098115 ] } },
{ "type": "Feature", "properties": { "osm_id": "1498428806", "name": "新莊", "type": "hamlet", "population": null }, "geometry": { "type": "Point", "coordinates": [ 120.224836, 23.2015679 ] } },
{ "type": "Feature", "properties": { "osm_id": "1499702317", "name": "加輦邦", "type": "hamlet", "population": null }, "geometry": { "type": "Point", "coordinates": [ 120.2502937, 23.1957412 ] } },
{ "type": "Feature", "properties": { "osm_id": "1499702376", "name": "過港宰", "type": "hamlet", "population": null }, "geometry": { "type": "Point", "coordinates": [ 120.2436847, 23.2046854 ] } },
{ "type": "Feature", "properties": { "osm_id": "1500939077", "name": "北勢寮", "type": "hamlet", "population": null }, "geometry": { "type": "Point", "coordinates": [ 120.2400831, 23.2039388 ] } },
{ "type": "Feature", "properties": { "osm_id": "1500979851", "name": "後寮", "type": "village", "population": null }, "geometry": { "type": "Point", "coordinates": [ 120.2479062, 23.1702917 ] } },
{ "type": "Feature", "properties": { "osm_id": "1500985420", "name": "部地", "type": "hamlet", "population": null }, "geometry": { "type": "Point", "coordinates": [ 120.2217355, 23.1682512 ] } },
{ "type": "Feature", "properties": { "osm_id": "1500985421", "name": "前班", "type": "hamlet", "population": null }, "geometry": { "type": "Point", "coordinates": [ 120.2349105, 23.1704212 ] } },
{ "type": "Feature", "properties": { "osm_id": "1501886931", "name": "後營", "type": "village", "population": null }, "geometry": { "type": "Point", "coordinates": [ 120.2169193, 23.1427561 ] } },
{ "type": "Feature", "properties": { "osm_id": "1502702089", "name": "磚仔井", "type": "hamlet", "population": null }, "geometry": { "type": "Point", "coordinates": [ 120.2529521, 23.173442 ] } },
{ "type": "Feature", "properties": { "osm_id": "1502907548", "name": "太西", "type": "hamlet", "population": null },